{
"type": "FeatureCollection",
"crs": { "type": "name", "properties": { "name": "urn:ogc:def:crs:OGC:1.3:CRS84" } },
                                                                                
"features": [
{ "type": "Feature", "properties": { "unique_ID": 1, "town_name": "GBARSLEH 1", "HH_count": "86", "adm_distrc": "Doedain", "health_dis": "Doedain", "remoteness": "near-facility", "duplicates": 1, "CD_cell": null, "ele": 0.000000, "time": "2015\/03\/14", "mappingRnd": 1, "name": "GBARSLEH 1", ">5km": 0, "numHH": 86, "LMS_2015": 0, "ID": 1, "CD_Name": null, "CD_correct": null, "CD_num_HH": null }, "geometry": { "type": "Point", "coordinates": [ -9.274734145501027, 6.223934184868236 ] } },
{ "type": "Feature", "properties": { "unique_ID": 2, "town_name": "GBORGAR WREENEE 2", "HH_count": "10", "adm_distrc": "Doedain", "health_dis": "Doedain", "remoteness": "remote", "duplicates": 1, "CD_cell": null, "ele": 0.000000, "time": "2015\/03\/14", "mappingRnd": 1, "name": "GBORGAR WREENEE 2", ">5km": 1, "numHH": 10, "LMS_2015": 0, "ID": 2, "CD_Name": null, "CD_correct": null, "CD_num_HH": null }, "geometry": { "type": "Point", "coordinates": [ -9.236745, 6.15684 ] } },
{ "type": "Feature", "properties": { "unique_ID": 3, "town_name": "NEAKAI", "HH_count": "13", "adm_distrc": "Doedain", "health_dis": "Doedain", "remoteness": "remote", "duplicates": 0, "CD_cell": null, "ele": 0.000000, "time": "2015\/03\/14", "mappingRnd": 1, "name": "NEAKAI", ">5km": 1, "numHH": 13, "LMS_2015": 0, "ID": 3, "CD_Name": null, "CD_correct": null, "CD_num_HH": null }, "geometry": { "type": "Point", "coordinates": [ -9.250904, 6.178053 ] } },
{ "type": "Feature", "properties": { "unique_ID": 4, "town_name": "CHARLIE", "HH_count": "36", "adm_distrc": "Doedain", "health_dis": "Doedain", "remoteness": "near-facility", "duplicates": 0, "CD_cell": null, "ele": 0.000000, "time": "2015\/03\/14", "mappingRnd": 1, "name": "CHARLIE", ">5km": 1, "numHH": 36, "LMS_2015": 1, "ID": 4, "CD_Name": null, "CD_correct": null, "CD_num_HH": null }, "geometry": { "type": "Point", "coordinates": [ -9.17718, 6.301269 ] } },
{ "type": "Feature", "properties": { "unique_ID": 5, "town_name": "SUAKON DEBAH 1", "HH_count": "31", "adm_distrc": "Doedain", "health_dis": "Doedain", "remoteness": "remote", "duplicates": 1, "CD_cell": null, "ele": 0.000000, "time": "2015\/03\/14", "mappingRnd": 1, "name": "SUAKON DEBAH 1", ">5km": 1, "numHH": 31, "LMS_2015": 0, "ID": 5, "CD_Name": null, "CD_correct": null, "CD_num_HH": null }, "geometry": { "type": "Point", "coordinates": [ -9.15438, 6.312146 ] } },
{ "type": "Feature", "properties": { "unique_ID": 6, "town_name": "DEHGA", "HH_count": "21", "adm_distrc": "Doedain", "health_dis": "Doedain", "remoteness": "remote", "duplicates": 0, "CD_cell": null, "ele": 0.000000, "time": "2015\/03\/14", "mappingRnd": 1, "name": "DEHGA", ">5km": 1, "numHH": 21, "LMS_2015": 0, "ID": 6, "CD_Name": null, "CD_correct": null, "CD_num_HH": null }, "geometry": { "type": "Point", "coordinates": [ -9.109222, 6.319536 ] } },
{ "type": "Feature", "properties": { "unique_ID": 7, "town_name": "BELTHEL", "HH_count": "26", "adm_distrc": "Doedain", "health_dis": "Doedain", "remoteness": "remote", "duplicates": 0, "CD_cell": null, "ele": 0.000000, "time": "2015\/03\/15", "mappingRnd": 1, "name": "BELTHEL", ">5km": 1, "numHH": 26, "LMS_2015": 0, "ID": 7, "CD_Name": null, "CD_correct": null, "CD_num_HH": null }, "geometry": { "type": "Point", "coordinates": [ -9.251960058509287, 6.316421096811968 ] } },
{ "type": "Feature", "properties": { "unique_ID": 8, "town_name": "BAPTIST MISSION 1", "HH_count": "10", "adm_distrc": "Doedain", "health_dis": "Doedain", "remoteness": "remote", "duplicates": 1, "CD_cell": null, "ele": 0.000000, "time": "2015\/03\/13", "mappingRnd": 1, "name": "BAPTIST MISSION 1", ">5km": 0, "numHH": 10, "LMS_2015": 0, "ID": 8, "CD_Name": null, "CD_correct": null, "CD_num_HH": null }, "geometry": { "type": "Point", "coordinates": [ -9.347843, 6.129343 ] } },
{ "type": "Feature", "properties": { "unique_ID": 9, "town_name": "KPORKPON", "HH_count": "51", "adm_distrc": "Doedain", "health_dis": "Doedain", "remoteness": "remote", "duplicates": 0, "CD_cell": null, "ele": 0.000000, "time": "2015\/03\/13", "mappingRnd": 1, "name": "KPORKPON", ">5km": 1, "numHH": 51, "LMS_2015": 0, "ID": 9, "CD_Name": null, "CD_correct": null, "CD_num_HH": null }, "geometry": { "type": "Point", "coordinates": [ -9.354307, 6.209036 ] } },
{ "type": "Feature", "properties": { "unique_ID": 10, "town_name": "ZEEGAR 1", "HH_count": "24", "adm_distrc": "Doedain", "health_dis": "Doedain", "remoteness": "remote", "duplicates": 1, "CD_cell": null, "ele": 0.000000, "time": "2015\/03\/13", "mappingRnd": 1, "name": "ZEEGAR 1", ">5km": 1, "numHH": 24, "LMS_2015": 0, "ID": 10, "CD_Name": null, "CD_correct": null, "CD_num_HH": null }, "geometry": { "type": "Point", "coordinates": [ -9.231485697141874, 6.186834611538981 ] } },
{ "type": "Feature", "properties": { "unique_ID": 11, "town_name": "DAVID", "HH_count": "15", "adm_distrc": "Doedain", "health_dis": "Doedain", "remoteness": "near-facility", "duplicates": 0, "CD_cell": null, "ele": 0.000000, "time": "2015\/03\/13", "mappingRnd": 1, "name": "DAVID", ">5km": 0, "numHH": 15, "LMS_2015": 0, "ID": 11, "CD_Name": null, "CD_correct": null, "CD_num_HH": null }, "geometry": { "type": "Point", "coordinates": [ -9.21352475457399, 6.262738254385932 ] } },
{ "type": "Feature", "properties": { "unique_ID": 12, "town_name": "ISAAC 1", "HH_count": "9", "adm_distrc": "Doedain", "health_dis": "Doedain", "remoteness": "remote", "duplicates": 1, "CD_cell": null, "ele": 0.000000, "time": "2015\/03\/13", "mappingRnd": 1, "name": "ISAAC 1", ">5km": 1, "numHH": 9, "LMS_2015": 0, "ID": 12, "CD_Name": null, "CD_correct": null, "CD_num_HH": null }, "geometry": { "type": "Point", "coordinates": [ -9.343905734356026, 6.192431604881904 ] } },
{ "type": "Feature", "properties": { "unique_ID": 13, "town_name": "GUAH", "HH_count": "22", "adm_distrc": "Doedain", "health_dis": "Doedain", "remoteness": "remote", "duplicates": 0, "CD_cell": null, "ele": 0.000000, "time": "2015\/03\/13", "mappingRnd": 1, "name": "GUAH", ">5km": 1, "numHH": 22, "LMS_2015": 1, "ID": 13, "CD_Name": null, "CD_correct": null, "CD_num_HH": null }, "geometry": { "type": "Point", "coordinates": [ -9.256475, 6.200583 ] } },
{ "type": "Feature", "properties": { "unique_ID": 14, "town_name": "BUARDU", "HH_count": "48", "adm_distrc": "Doedain", "health_dis": "Doedain", "remoteness": "remote", "duplicates": 0, "CD_cell": null, "ele": 0.000000, "time": "2015\/03\/13", "mappingRnd": 1, "name": "BUARDU", ">5km": 1, "numHH": 48, "LMS_2015": 0, "ID": 14, "CD_Name": null, "CD_correct": null, "CD_num_HH": null }, "geometry": { "type": "Point", "coordinates": [ -9.229031, 6.210856 ] } },
{ "type": "Feature", "properties": { "unique_ID": 15, "town_name": "TOBAY 1", "HH_count": "20", "adm_distrc": "Doedain", "health_dis": "Doedain", "remoteness": "remote", "duplicates": 1, "CD_cell": null, "ele": 0.000000, "time": "2015\/03\/12", "mappingRnd": 1, "name": "TOBAY 1", ">5km": 1, "numHH": 20, "LMS_2015": 1, "ID": 15, "CD_Name": null, "CD_correct": null, "CD_num_HH": null }, "geometry": { "type": "Point", "coordinates": [ -9.273509481696182, 6.13293849916859 ] } },
{ "type": "Feature", "properties": { "unique_ID": 16, "town_name": "GLAGBOGAR 1", "HH_count": "5", "adm_distrc": "Doedain", "health_dis": "Doedain", "remoteness": "near-facility", "duplicates": 1, "CD_cell": null, "ele": 0.000000, "time": "2015\/03\/12", "mappingRnd": 1, "name": "GLAGBOGAR 1", ">5km": 0, "numHH": 5, "LMS_2015": 0, "ID": 16, "CD_Name": null, "CD_correct": null, "CD_num_HH": null }, "geometry": { "type": "Point", "coordinates": [ -9.30965, 6.177315 ] } },
{ "type": "Feature", "properties": { "unique_ID": 17, "town_name": "TIAH 1", "HH_count": "34", "adm_distrc": "Doedain", "health_dis": "Doedain", "remoteness": "remote", "duplicates": 1, "CD_cell": null, "ele": 0.000000, "time": "2015\/03\/12", "mappingRnd": 1, "name": "TIAH 1", ">5km": 1, "numHH": 34, "LMS_2015": 0, "ID": 17, "CD_Name": null, "CD_correct": null, "CD_num_HH": null }, "geometry": { "type": "Point", "coordinates": [ -9.284935, 6.163842 ] } },
{ "type": "Feature", "properties": { "unique_ID": 18, "town_name": "SWEET MOTHER 1", "HH_count": "13", "adm_distrc": "Doedain", "health_dis": "Doedain", "remoteness": "remote", "duplicates": 1, "CD_cell": "L", "ele": 0.000000, "time": "2015\/03\/12", "mappingRnd": 1, "name": "SWEET MOTHER 1", ">5km": 1, "numHH": 13, "LMS_2015": 0, "ID": 18, "CD_Name": null, "CD_correct": "Yes", "CD_num_HH": "10" }, "geometry": { "type": "Point", "coordinates": [ -9.280536391148601, 6.195356294725732 ] } },
{ "type": "Feature", "properties": { "unique_ID": 19, "town_name": "GBOGAR 1", "HH_count": "32", "adm_distrc": "Doedain", "health_dis": "Doedain", "remoteness": "remote", "duplicates": 1, "CD_cell": null, "ele": 0.000000, "time": "2015\/03\/12", "mappingRnd": 1, "name": "GBOGAR 1", ">5km": 1, "numHH": 32, "LMS_2015": 1, "ID": 19, "CD_Name": null, "CD_correct": null, "CD_num_HH": null }, "geometry": { "type": "Point", "coordinates": [ -9.282786044961661, 6.208254606169019 ] } },
{ "type": "Feature", "properties": { "unique_ID": 20, "town_name": "ZOEWHOLOR", "HH_count": "26", "adm_distrc": "Doedain", "health_dis": "Doedain", "remoteness": "near-facility", "duplicates": 0, "CD_cell": null, "ele": 0.000000, "time": "2015\/03\/12", "mappingRnd": 1, "name": "ZOEWHOLOR", ">5km": 0, "numHH": 26, "LMS_2015": 0, "ID": 20, "CD_Name": null, "CD_correct": null, "CD_num_HH": null }, "geometry": { "type": "Point", "coordinates": [ -9.308325, 6.136926 ] } },
{ "type": "Feature", "properties": { "unique_ID": 21, "town_name": "FUNNIE 2", "HH_count": "13", "adm_distrc": "Doedain", "health_dis": "Doedain", "remoteness": "near-facility", "duplicates": 1, "CD_cell": null, "ele": 0.000000, "time": "2015\/03\/12", "mappingRnd": 1, "name": "FUNNIE 2", ">5km": 0, "numHH": 13, "LMS_2015": 0, "ID": 21, "CD_Name": null, "CD_correct": null, "CD_num_HH": null }, "geometry": { "type": "Point", "coordinates": [ -9.301889, 6.179353 ] } },
{ "type": "Feature", "properties": { "unique_ID": 22, "town_name": "NAGBO 1", "HH_count": "51", "adm_distrc": "Doedain", "health_dis": "Doedain", "remoteness": "remote", "duplicates": 1, "CD_cell": null, "ele": 0.000000, "time": "2015\/03\/12", "mappingRnd": 1, "name": "NAGBO 1", ">5km": 1, "numHH": 51, "LMS_2015": 1, "ID": 22, "CD_Name": null, "CD_correct": null, "CD_num_HH": null }, "geometry": { "type": "Point", "coordinates": [ -9.278645, 6.183299 ] } },
{ "type": "Feature", "properties": { "unique_ID": 23, "town_name": "BUEN 1", "HH_count": "28", "adm_distrc": "Doedain", "health_dis": "Doedain", "remoteness": "remote", "duplicates": 1, "CD_cell": null, "ele": 0.000000, "time": "2015\/03\/12", "mappingRnd": 1, "name": "BUEN 1", ">5km": 1, "numHH": 28, "LMS_2015": 0, "ID": 23, "CD_Name": null, "CD_correct": null, "CD_num_HH": null }, "geometry": { "type": "Point", "coordinates": [ -9.303748, 6.213665 ] } },
{ "type": "Feature", "properties": { "unique_ID": 24, "town_name": "KPONFOADAH V", "HH_count": "10", "adm_distrc": "Doedain", "health_dis": "Doedain", "remoteness": "near-facility", "duplicates": 0, "CD_cell": null, "ele": 0.000000, "time": "2015\/03\/14", "mappingRnd": 1, "name": "KPONFOADAH V", ">5km": 0, "numHH": 10, "LMS_2015": 0, "ID": 24, "CD_Name": null, "CD_correct": null, "CD_num_HH": null }, "geometry": { "type": "Point", "coordinates": [ -9.271814, 6.244715 ] } },
{ "type": "Feature", "properties": { "unique_ID": 25, "town_name": "NORDYU VAH", "HH_count": "29", "adm_distrc": "Doedain", "health_dis": "Doedain", "remoteness": "remote", "duplicates": 0, "CD_cell": null, "ele": 0.000000, "time": "2015\/03\/14", "mappingRnd": 1, "name": "NORDYU VAH", ">5km": 1, "numHH": 29, "LMS_2015": 1, "ID": 25, "CD_Name": null, "CD_correct": null, "CD_num_HH": null }, "geometry": { "type": "Point", "coordinates": [ -9.241801, 6.165792 ] } },
{ "type": "Feature", "properties": { "unique_ID": 26, "town_name": "KANGBO 1", "HH_count": "111", "adm_distrc": "Doedain", "health_dis": "Doedain", "remoteness": "near-facility", "duplicates": 1, "CD_cell": null, "ele": 0.000000, "time": "2015\/03\/14", "mappingRnd": 1, "name": "KANGBO 1", ">5km": 0, "numHH": 111, "LMS_2015": 0, "ID": 26, "CD_Name": null, "CD_correct": null, "CD_num_HH": null }, "geometry": { "type": "Point", "coordinates": [ -9.206339777884365, 6.267636239392985 ] } },
{ "type": "Feature", "properties": { "unique_ID": 27, "town_name": "ZINCGBOZOHN 2", "HH_count": "10", "adm_distrc": "Doedain", "health_dis": "Doedain", "remoteness": "remote", "duplicates": 1, "CD_cell": null, "ele": 0.000000, "time": "2015\/03\/14", "mappingRnd": 1, "name": "ZINCGBOZOHN 2", ">5km": 1, "numHH": 10, "LMS_2015": 0, "ID": 27, "CD_Name": null, "CD_correct": null, "CD_num_HH": null }, "geometry": { "type": "Point", "coordinates": [ -9.159449, 6.307779 ] } },
{ "type": "Feature", "properties": { "unique_ID": 28, "town_name": "SOMALLA DEHBA 2", "HH_count": "19", "adm_distrc": "Doedain", "health_dis": "Doedain", "remoteness": "remote", "duplicates": 1, "CD_cell": null, "ele": 0.000000, "time": "2015\/03\/14", "mappingRnd": 1, "name": "SOMALLA DEHBA 2", ">5km": 1, "numHH": 19, "LMS_2015": 0, "ID": 28, "CD_Name": null, "CD_correct": null, "CD_num_HH": null }, "geometry": { "type": "Point", "coordinates": [ -9.122506, 6.31763 ] } },
{ "type": "Feature", "properties": { "unique_ID": 29, "town_name": "JAAVILLE V 2", "HH_count": "4", "adm_distrc": "Doedain", "health_dis": "Doedain", "remoteness": "near-facility", "duplicates": 1, "CD_cell": null, "ele": 0.000000, "time": "2015\/03\/14", "mappingRnd": 1, "name": "JAAVILLE V 2", ">5km": 0, "numHH": 4, "LMS_2015": 0, "ID": 29, "CD_Name": null, "CD_correct": null, "CD_num_HH": null }, "geometry": { "type": "Point", "coordinates": [ -9.272369, 6.255239 ] } },
{ "type": "Feature", "properties": { "unique_ID": 30, "town_name": "GOZOHN 1", "HH_count": "99", "adm_distrc": "Doedain", "health_dis": "Doedain", "remoteness": "near-facility", "duplicates": 1, "CD_cell": null, "ele": 0.000000, "time": "2015\/03\/15", "mappingRnd": 1, "name": "GOZOHN 1", ">5km": 0, "numHH": 99, "LMS_2015": 1, "ID": 30, "CD_Name": null, "CD_correct": null, "CD_num_HH": null }, "geometry": { "type": "Point", "coordinates": [ -9.276352263897474, 6.260220844781737 ] } },
{ "type": "Feature", "properties": { "unique_ID": 31, "town_name": "BOE 1", "HH_count": "350", "adm_distrc": "Doedain", "health_dis": "Doedain", "remoteness": "remote", "duplicates": 1, "CD_cell": null, "ele": 0.000000, "time": "2015\/02\/26", "mappingRnd": 1, "name": "BOE 1", ">5km": 1, "numHH": 350, "LMS_2015": 1, "ID": 31, "CD_Name": null, "CD_correct": null, "CD_num_HH": null }, "geometry": { "type": "Point", "coordinates": [ -9.368346305750938, 6.118660757810651 ] } },
{ "type": "Feature", "properties": { "unique_ID": 32, "town_name": "JULUDE 1", "HH_count": "28", "adm_distrc": "Doedain", "health_dis": "Doedain", "remoteness": "remote", "duplicates": 1, "CD_cell": null, "ele": 0.000000, "time": "2015\/01\/28", "mappingRnd": 1, "name": "JULUDE 1", ">5km": 1, "numHH": 28, "LMS_2015": 1, "ID": 32, "CD_Name": null, "CD_correct": null, "CD_num_HH": null }, "geometry": { "type": "Point", "coordinates": [ -9.298012455923912, 6.115238245056943 ] } },
{ "type": "Feature", "properties": { "unique_ID": 33, "town_name": "BOEGEEZAY 1", "HH_count": "250", "adm_distrc": "Doedain", "health_dis": "Doedain", "remoteness": "near-facility", "duplicates": 1, "CD_cell": null, "ele": 0.000000, "time": "2015\/01\/28", "mappingRnd": 1, "name": "BOEGEEZAY 1", ">5km": 0, "numHH": 250, "LMS_2015": 1, "ID": 33, "CD_Name": null, "CD_correct": null, "CD_num_HH": null }, "geometry": { "type": "Point", "coordinates": [ -9.308225129467333, 6.136846840667353 ] } },
{ "type": "Feature", "properties": { "unique_ID": 34, "town_name": "GBEDIAH", "HH_count": "68", "adm_distrc": "Doedain", "health_dis": "Doedain", "remoteness": "near-facility", "duplicates": 0, "CD_cell": null, "ele": 0.000000, "time": "2015\/02\/28", "mappingRnd": 1, "name": "GBEDIAH", ">5km": 0, "numHH": 68, "LMS_2015": 0, "ID": 34, "CD_Name": null, "CD_correct": null, "CD_num_HH": null }, "geometry": { "type": "Point", "coordinates": [ -9.321770473063399, 6.150492916619331 ] } },
{ "type": "Feature", "properties": { "unique_ID": 35, "town_name": "SINAH", "HH_count": "0", "adm_distrc": "Doedain", "health_dis": "Doedain", "remoteness": "remote", "duplicates": 0, "CD_cell": null, "ele": 0.000000, "time": "2015\/07\/13", "mappingRnd": 2, "name": "SINAH", ">5km": 0, "numHH": 0, "LMS_2015": 0, "ID": 35, "CD_Name": null, "CD_correct": null, "CD_num_HH": null }, "geometry": { "type": "Point", "coordinates": [ -9.234473, 6.138132 ] } },
{ "type": "Feature", "properties": { "unique_ID": 36, "town_name": "TOE", "HH_count": "0", "adm_distrc": "Doedain", "health_dis": "Doedain", "remoteness": "remote", "duplicates": 0, "CD_cell": null, "ele": 0.000000, "time": "2015\/07\/09", "mappingRnd": 2, "name": "TOE", ">5km": 0, "numHH": 0, "LMS_2015": 0, "ID": 36, "CD_Name": null, "CD_correct": null, "CD_num_HH": null }, "geometry": { "type": "Point", "coordinates": [ -9.353024, 6.126881 ] } },
{ "type": "Feature", "properties": { "unique_ID": 37, "town_name": "QUITOE", "HH_count": "0", "adm_distrc": "Doedain", "health_dis": "Doedain", "remoteness": "remote", "duplicates": 0, "CD_cell": null, "ele": 0.000000, "time": "2015\/07\/13", "mappingRnd": 2, "name": "QUITOE", ">5km": 0, "numHH": 0, "LMS_2015": 0, "ID": 37, "CD_Name": null, "CD_correct": null, "CD_num_HH": null }, "geometry": { "type": "Point", "coordinates": [ -9.353588, 6.125694 ] } },
{ "type": "Feature", "properties": { "unique_ID": 38, "town_name": "GOGO", "HH_count": "0", "adm_distrc": "Doedain", "health_dis": "Doedain", "remoteness": "remote", "duplicates": 0, "CD_cell": null, "ele": 0.000000, "time": "2015\/06\/11", "mappingRnd": 2, "name": "GOGO", ">5km": 0, "numHH": 0, "LMS_2015": 0, "ID": 38, "CD_Name": null, "CD_correct": null, "CD_num_HH": null }, "geometry": { "type": "Point", "coordinates": [ -9.281431, 6.190198 ] } },
{ "type": "Feature", "properties": { "unique_ID": 39, "town_name": "JAMES HENRY", "HH_count": "0", "adm_distrc": "Doedain", "health_dis": "Doedain", "remoteness": "remote", "duplicates": 0, "CD_cell": null, "ele": 0.000000, "time": "2015\/06\/15", "mappingRnd": 2, "name": "JAMES HENRY", ">5km": 0, "numHH": 0, "LMS_2015": 0, "ID": 39, "CD_Name": null, "CD_correct": null, "CD_num_HH": null }, "geometry": { "type": "Point", "coordinates": [ -9.351212, 6.119135 ] } },
{ "type": "Feature", "properties": { "unique_ID": 40, "town_name": "AMERICA VILLAGE", "HH_count": "1", "adm_distrc": "Doedain", "health_dis": "Doedain", "remoteness": "remote", "duplicates": 0, "CD_cell": "L", "ele": 182.822449, "time": "2015\/07\/14", "mappingRnd": 0, "name": "AMERICA VILLAGE", ">5km": 0, "numHH": 0, "LMS_2015": 0, "ID": 40, "CD_Name": null, "CD_correct": "Yes", "CD_num_HH": "1" }, "geometry": { "type": "Point", "coordinates": [ -9.156735, 6.359558 ] } },
{ "type": "Feature", "properties": { "unique_ID": 41, "town_name": "BALAMAH VILLAGE", "HH_count": "5", "adm_distrc": "Doedain", "health_dis": "Doedain", "remoteness": "remote", "duplicates": 0, "CD_cell": "L", "ele": 156.897751, "time": "2015\/07\/18", "mappingRnd": 0, "name": "BALAMAH VILLAGE", ">5km": 0, "numHH": 0, "LMS_2015": 0, "ID": 41, "CD_Name": null, "CD_correct": "Yes", "CD_num_HH": "5" }, "geometry": { "type": "Point", "coordinates": [ -9.157543, 6.364815 ] } },
{ "type": "Feature", "properties": { "unique_ID": 42, "town_name": "BAPTIST MISSION 2", "HH_count": "7", "adm_distrc": "Doedain", "health_dis": "Doedain", "remoteness": "remote", "duplicates": 1, "CD_cell": "L", "ele": 179.712143, "time": "2015\/07\/11", "mappingRnd": 0, "name": "BAPTIST MISSION 2", ">5km": 0, "numHH": 0, "LMS_2015": 0, "ID": 42, "CD_Name": null, "CD_correct": "Yes", "CD_num_HH": "7" }, "geometry": { "type": "Point", "coordinates": [ -9.157909, 6.373794 ] } },
{ "type": "Feature", "properties": { "unique_ID": 43, "town_name": "BETHAL", "HH_count": "12", "adm_distrc": "Doedain", "health_dis": "Doedain", "remoteness": "remote", "duplicates": 0, "CD_cell": "___", "ele": 204.140945, "time": "2015\/07\/31", "mappingRnd": 0, "name": "BETHAL", ">5km": 0, "numHH": 0, "LMS_2015": 0, "ID": 43, "CD_Name": null, "CD_correct": "Yes", "CD_num_HH": "12" }, "geometry": { "type": "Point", "coordinates": [ -9.158333, 6.375218 ] } },
{ "type": "Feature", "properties": { "unique_ID": 44, "town_name": "BLOWHEN SAYON", "HH_count": "34", "adm_distrc": "Doedain", "health_dis": "Doedain", "remoteness": "remote", "duplicates": 0, "CD_cell": "___", "ele": 211.047745, "time": "2015\/08\/02", "mappingRnd": 0, "name": "BLOWHEN SAYON", ">5km": 0, "numHH": 0, "LMS_2015": 0, "ID": 44, "CD_Name": null, "CD_correct": "Yes", "CD_num_HH": "34" }, "geometry": { "type": "Point", "coordinates": [ -9.158953, 6.375588 ] } },
{ "type": "Feature", "properties": { "unique_ID": 45, "town_name": "BOE TOWN 2", "HH_count": "79", "adm_distrc": "Doedain", "health_dis": "Doedain", "remoteness": "near-facility", "duplicates": 1, "CD_cell": "L", "ele": 171.408676, "time": "2015\/07\/13", "mappingRnd": 0, "name": "BOE TOWN 2", ">5km": 0, "numHH": 0, "LMS_2015": 0, "ID": 45, "CD_Name": null, "CD_correct": "Yes", "CD_num_HH": "79" }, "geometry": { "type": "Point", "coordinates": [ -9.322114, 6.150347 ] } },
{ "type": "Feature", "properties": { "unique_ID": 46, "town_name": "BOGEEZAY 2", "HH_count": "14", "adm_distrc": "Doedain", "health_dis": "Doedain", "remoteness": "near-facility", "duplicates": 1, "CD_cell": "L", "ele": 180.788956, "time": "2015\/07\/10", "mappingRnd": 0, "name": "BOGEEZAY 2", ">5km": 0, "numHH": 0, "LMS_2015": 0, "ID": 46, "CD_Name": null, "CD_correct": "Yes", "CD_num_HH": "14" }, "geometry": { "type": "Point", "coordinates": [ -9.305402, 6.132392 ] } },
{ "type": "Feature", "properties": { "unique_ID": 47, "town_name": "BOGEEZAY TOWN 3", "HH_count": "124", "adm_distrc": "Doedain", "health_dis": "Doedain", "remoteness": "near-facility", "duplicates": 1, "CD_cell": "L", "ele": 158.636826, "time": "2015\/07\/10", "mappingRnd": 0, "name": "BOGEEZAY TOWN 3", ">5km": 0, "numHH": 0, "LMS_2015": 0, "ID": 47, "CD_Name": null, "CD_correct": "Yes", "CD_num_HH": "124" }, "geometry": { "type": "Point", "coordinates": [ -9.300581, 6.130254 ] } },
{ "type": "Feature", "properties": { "unique_ID": 48, "town_name": "BOILU", "HH_count": "39", "adm_distrc": "Doedain", "health_dis": "Doedain", "remoteness": "near-facility", "duplicates": 0, "CD_cell": "L", "ele": 191.107773, "time": "2015\/08\/01", "mappingRnd": 0, "name": "BOILU", ">5km": 0, "numHH": 0, "LMS_2015": 0, "ID": 48, "CD_Name": null, "CD_correct": "Yes", "CD_num_HH": "39" }, "geometry": { "type": "Point", "coordinates": [ -9.297221, 6.128832 ] } },
{ "type": "Feature", "properties": { "unique_ID": 49, "town_name": "BUDU DAVID", "HH_count": "17", "adm_distrc": "Doedain", "health_dis": "Doedain", "remoteness": "near-facility", "duplicates": 0, "CD_cell": "L", "ele": 192.288788, "time": "2015\/08\/01", "mappingRnd": 0, "name": "BUDU DAVID", ">5km": 0, "numHH": 0, "LMS_2015": 0, "ID": 49, "CD_Name": null, "CD_correct": "Yes", "CD_num_HH": "17" }, "geometry": { "type": "Point", "coordinates": [ -9.294233, 6.128163 ] } },
{ "type": "Feature", "properties": { "unique_ID": 50, "town_name": "BUEN TOWN 2", "HH_count": "24", "adm_distrc": "Doedain", "health_dis": "Doedain", "remoteness": "remote", "duplicates": 1, "CD_cell": "L", "ele": 169.123138, "time": "2015\/07\/20", "mappingRnd": 0, "name": "BUEN TOWN 2", ">5km": 0, "numHH": 0, "LMS_2015": 0, "ID": 50, "CD_Name": null, "CD_correct": "Yes", "CD_num_HH": "24" }, "geometry": { "type": "Point", "coordinates": [ -9.277098, 6.129594 ] } },
{ "type": "Feature", "properties": { "unique_ID": 51, "town_name": "CHARLES TOWN", "HH_count": "25", "adm_distrc": "Doedain", "health_dis": "Doedain", "remoteness": "remote", "duplicates": 0, "CD_cell": "___", "ele": 237.328293, "time": "2015\/07\/17", "mappingRnd": 0, "name": "CHARLES TOWN", ">5km": 0, "numHH": 0, "LMS_2015": 0, "ID": 51, "CD_Name": null, "CD_correct": "Yes", "CD_num_HH": "25" }, "geometry": { "type": "Point", "coordinates": [ -9.274505, 6.129367 ] } },
{ "type": "Feature", "properties": { "unique_ID": 52, "town_name": "DANNIES VILLAGE", "HH_count": "1", "adm_distrc": "Doedain", "health_dis": "Doedain", "remoteness": "remote", "duplicates": 0, "CD_cell": "L", "ele": 166.626770, "time": "2015\/07\/17", "mappingRnd": 0, "name": "DANNIES VILLAGE", ">5km": 0, "numHH": 0, "LMS_2015": 0, "ID": 52, "CD_Name": null, "CD_correct": "Yes", "CD_num_HH": "1" }, "geometry": { "type": "Point", "coordinates": [ -9.273606, 6.133604 ] } },
{ "type": "Feature", "properties": { "unique_ID": 53, "town_name": "DOE VILLAGE", "HH_count": "7", "adm_distrc": "Doedain", "health_dis": "Doedain", "remoteness": "near-facility", "duplicates": 0, "CD_cell": "___", "ele": 228.135818, "time": "2015\/08\/02", "mappingRnd": 0, "name": "DOE VILLAGE", ">5km": 0, "numHH": 0, "LMS_2015": 0, "ID": 53, "CD_Name": null, "CD_correct": "Yes", "CD_num_HH": "7" }, "geometry": { "type": "Point", "coordinates": [ -9.305255, 6.132373 ] } },
{ "type": "Feature", "properties": { "unique_ID": 54, "town_name": "DOEDAINTOWN", "HH_count": "10", "adm_distrc": "Doedain", "health_dis": "Doedain", "remoteness": "remote", "duplicates": 0, "CD_cell": "___", "ele": 202.770142, "time": "2015\/07\/31", "mappingRnd": 0, "name": "DOEDAINTOWN", ">5km": 0, "numHH": 0, "LMS_2015": 0, "ID": 54, "CD_Name": null, "CD_correct": "Yes", "CD_num_HH": "10" }, "geometry": { "type": "Point", "coordinates": [ -9.295277, 6.114042 ] } },
{ "type": "Feature", "properties": { "unique_ID": 55, "town_name": "DORWAH\/FUNNIE TOWN 1", "HH_count": "15", "adm_distrc": "Doedain", "health_dis": "Doedain", "remoteness": "remote", "duplicates": 1, "CD_cell": "L", "ele": 183.274048, "time": "2015\/07\/10", "mappingRnd": 0, "name": "DORWAH\/FUNNIE TOWN 1", ">5km": 0, "numHH": 0, "LMS_2015": 0, "ID": 55, "CD_Name": null, "CD_correct": "Yes", "CD_num_HH": "15" }, "geometry": { "type": "Point", "coordinates": [ -9.291606, 6.112422 ] } },
{ "type": "Feature", "properties": { "unique_ID": 56, "town_name": "DUO VILLAGE", "HH_count": "4", "adm_distrc": "Doedain", "health_dis": "Doedain", "remoteness": "remote", "duplicates": 0, "CD_cell": "L", "ele": 166.224243, "time": "2015\/07\/11", "mappingRnd": 0, "name": "DUO VILLAGE", ">5km": 0, "numHH": 0, "LMS_2015": 0, "ID": 56, "CD_Name": null, "CD_correct": "Yes", "CD_num_HH": "4" }, "geometry": { "type": "Point", "coordinates": [ -9.288111, 6.113212 ] } },
{ "type": "Feature", "properties": { "unique_ID": 57, "town_name": "ERIC VILLAGE", "HH_count": "1", "adm_distrc": "Doedain", "health_dis": "Doedain", "remoteness": "remote", "duplicates": 0, "CD_cell": "L", "ele": 156.184601, "time": "2015\/07\/17", "mappingRnd": 0, "name": "ERIC VILLAGE", ">5km": 0, "numHH": 0, "LMS_2015": 0, "ID": 57, "CD_Name": null, "CD_correct": "Yes", "CD_num_HH": "1" }, "geometry": { "type": "Point", "coordinates": [ -9.278826, 6.106909 ] } },
{ "type": "Feature", "properties": { "unique_ID": 58, "town_name": "FAHN DEHGAR TOWN", "HH_count": "18", "adm_distrc": "Doedain", "health_dis": "Doedain", "remoteness": "remote", "duplicates": 0, "CD_cell": "___", "ele": 210.311157, "time": "2015\/07\/17", "mappingRnd": 0, "name": "FAHN DEHGAR TOWN", ">5km": 0, "numHH": 0, "LMS_2015": 0, "ID": 58, "CD_Name": null, "CD_correct": "Yes", "CD_num_HH": "18" }, "geometry": { "type": "Point", "coordinates": [ -9.274936, 6.102428 ] } },
{ "type": "Feature", "properties": { "unique_ID": 59, "town_name": "GBARSLEH TOWN 2", "HH_count": "46", "adm_distrc": "Doedain", "health_dis": "Doedain", "remoteness": "remote", "duplicates": 1, "CD_cell": "L", "ele": 189.989944, "time": "2015\/07\/13", "mappingRnd": 0, "name": "GBARSLEH TOWN 2", ">5km": 0, "numHH": 0, "LMS_2015": 0, "ID": 59, "CD_Name": null, "CD_correct": "Yes", "CD_num_HH": "46" }, "geometry": { "type": "Point", "coordinates": [ -9.271841, 6.098116 ] } },
{ "type": "Feature", "properties": { "unique_ID": 60, "town_name": "GBIEH VILLAGE", "HH_count": "5", "adm_distrc": "Doedain", "health_dis": "Doedain", "remoteness": "remote", "duplicates": 0, "CD_cell": "___", "ele": 180.586151, "time": "2015\/08\/01", "mappingRnd": 0, "name": "GBIEH VILLAGE", ">5km": 0, "numHH": 0, "LMS_2015": 0, "ID": 60, "CD_Name": null, "CD_correct": "Yes", "CD_num_HH": "5" }, "geometry": { "type": "Point", "coordinates": [ -9.255989, 6.08674 ] } },
{ "type": "Feature", "properties": { "unique_ID": 61, "town_name": "GBLO\/ BAR TOWN", "HH_count": "20", "adm_distrc": "Doedain", "health_dis": "Doedain", "remoteness": "remote", "duplicates": 0, "CD_cell": "___", "ele": 237.227768, "time": "2015\/08\/02", "mappingRnd": 0, "name": "GBLO\/ BAR TOWN", ">5km": 0, "numHH": 0, "LMS_2015": 0, "ID": 61, "CD_Name": null, "CD_correct": "Yes", "CD_num_HH": "20" }, "geometry": { "type": "Point", "coordinates": [ -9.254056, 6.084168 ] } },
{ "type": "Feature", "properties": { "unique_ID": 62, "town_name": "GBORGAR TOWN 2", "HH_count": "21", "adm_distrc": "Doedain", "health_dis": "Doedain", "remoteness": "near-facility", "duplicates": 1, "CD_cell": "L", "ele": 181.105942, "time": "2015\/07\/13", "mappingRnd": 0, "name": "GBORGAR TOWN 2", ">5km": 0, "numHH": 0, "LMS_2015": 0, "ID": 62, "CD_Name": null, "CD_correct": "Yes", "CD_num_HH": "21" }, "geometry": { "type": "Point", "coordinates": [ -9.321979, 6.150384 ] } },
{ "type": "Feature", "properties": { "unique_ID": 63, "town_name": "GBORGAR WHELENEEN TOWN 1", "HH_count": "10", "adm_distrc": "Doedain", "health_dis": "Doedain", "remoteness": "near-facility", "duplicates": 1, "CD_cell": "L", "ele": 186.861603, "time": "2015\/07\/16", "mappingRnd": 0, "name": "GBORGAR WHELENEEN TOWN 1", ">5km": 0, "numHH": 0, "LMS_2015": 0, "ID": 63, "CD_Name": null, "CD_correct": "Yes", "CD_num_HH": "10" }, "geometry": { "type": "Point", "coordinates": [ -9.322011, 6.150372 ] } },
{ "type": "Feature", "properties": { "unique_ID": 64, "town_name": "GBORTOE TOWNN", "HH_count": "81", "adm_distrc": "Doedain", "health_dis": "Doedain", "remoteness": "near-facility", "duplicates": 0, "CD_cell": "L", "ele": 172.753357, "time": "2015\/07\/16", "mappingRnd": 0, "name": "GBORTOE TOWNN", ">5km": 0, "numHH": 0, "LMS_2015": 0, "ID": 64, "CD_Name": null, "CD_correct": "Yes", "CD_num_HH": "81" }, "geometry": { "type": "Point", "coordinates": [ -9.213917, 6.268877 ] } },
{ "type": "Feature", "properties": { "unique_ID": 65, "town_name": "GLAGBOGAR\/PETER GBAYE TOWN 2", "HH_count": "7", "adm_distrc": "Doedain", "health_dis": "Doedain", "remoteness": "near-facility", "duplicates": 1, "CD_cell": "L", "ele": 173.368774, "time": "2015\/07\/10", "mappingRnd": 0, "name": "GLAGBOGAR\/PETER GBAYE TOWN 2", ">5km": 0, "numHH": 0, "LMS_2015": 0, "ID": 65, "CD_Name": null, "CD_correct": "Yes", "CD_num_HH": "7" }, "geometry": { "type": "Point", "coordinates": [ -9.21409, 6.268846 ] } },
{ "type": "Feature", "properties": { "unique_ID": 66, "town_name": "GOAH TOWN", "HH_count": "18", "adm_distrc": "Doedain", "health_dis": "Doedain", "remoteness": "near-facility", "duplicates": 0, "CD_cell": "L", "ele": 175.922012, "time": "2015\/07\/16", "mappingRnd": 0, "name": "GOAH TOWN", ">5km": 0, "numHH": 0, "LMS_2015": 0, "ID": 66, "CD_Name": null, "CD_correct": "Yes", "CD_num_HH": "18" }, "geometry": { "type": "Point", "coordinates": [ -9.214627, 6.267489 ] } },
{ "type": "Feature", "properties": { "unique_ID": 67, "town_name": "GOZOHN TOWN 2", "HH_count": "84", "adm_distrc": "Doedain", "health_dis": "Doedain", "remoteness": "near-facility", "duplicates": 1, "CD_cell": "L", "ele": 197.703400, "time": "2015\/07\/15", "mappingRnd": 0, "name": "GOZOHN TOWN 2", ">5km": 0, "numHH": 0, "LMS_2015": 0, "ID": 67, "CD_Name": null, "CD_correct": "Yes", "CD_num_HH": "84" }, "geometry": { "type": "Point", "coordinates": [ -9.21435, 6.264085 ] } },
{ "type": "Feature", "properties": { "unique_ID": 68, "town_name": "ISAAC TOWN 2", "HH_count": "9", "adm_distrc": "Doedain", "health_dis": "Doedain", "remoteness": "near-facility", "duplicates": 1, "CD_cell": "L", "ele": 159.482086, "time": "2015\/07\/21", "mappingRnd": 0, "name": "ISAAC TOWN 2", ">5km": 0, "numHH": 0, "LMS_2015": 0, "ID": 68, "CD_Name": null, "CD_correct": "Yes", "CD_num_HH": "9" }, "geometry": { "type": "Point", "coordinates": [ -9.2135, 6.26277 ] } },
{ "type": "Feature", "properties": { "unique_ID": 69, "town_name": "JAA VILLE VILLAGE 1", "HH_count": "3", "adm_distrc": "Doedain", "health_dis": "Doedain", "remoteness": "near-facility", "duplicates": 1, "CD_cell": "L", "ele": 201.615158, "time": "2015\/07\/15", "mappingRnd": 0, "name": "JAA VILLE VILLAGE 1", ">5km": 0, "numHH": 0, "LMS_2015": 0, "ID": 69, "CD_Name": null, "CD_correct": "Yes", "CD_num_HH": "3" }, "geometry": { "type": "Point", "coordinates": [ -9.220603, 6.255492 ] } },
{ "type": "Feature", "properties": { "unique_ID": 70, "town_name": "JOHN VAH", "HH_count": "3", "adm_distrc": "Doedain", "health_dis": "Doedain", "remoteness": "near-facility", "duplicates": 0, "CD_cell": "L", "ele": 193.925156, "time": "2015\/08\/01", "mappingRnd": 0, "name": "JOHN VAH", ">5km": 0, "numHH": 0, "LMS_2015": 0, "ID": 70, "CD_Name": null, "CD_correct": "Yes", "CD_num_HH": "3" }, "geometry": { "type": "Point", "coordinates": [ -9.223448, 6.255762 ] } },
{ "type": "Feature", "properties": { "unique_ID": 71, "town_name": "JULUDOE TOWN 2", "HH_count": "25", "adm_distrc": "Doedain", "health_dis": "Doedain", "remoteness": "remote", "duplicates": 1, "CD_cell": "L", "ele": 182.926544, "time": "2015\/07\/15", "mappingRnd": 0, "name": "JULUDOE TOWN 2", ">5km": 0, "numHH": 0, "LMS_2015": 0, "ID": 71, "CD_Name": null, "CD_correct": "Yes", "CD_num_HH": "25" }, "geometry": { "type": "Point", "coordinates": [ -9.228178, 6.256003 ] } },
{ "type": "Feature", "properties": { "unique_ID": 72, "town_name": "JUNCTION FIVE VILLAGE", "HH_count": "4", "adm_distrc": "Doedain", "health_dis": "Doedain", "remoteness": "remote", "duplicates": 0, "CD_cell": "___", "ele": 246.247406, "time": "2015\/08\/02", "mappingRnd": 0, "name": "JUNCTION FIVE VILLAGE", ">5km": 0, "numHH": 0, "LMS_2015": 0, "ID": 72, "CD_Name": null, "CD_correct": "Yes", "CD_num_HH": "4" }, "geometry": { "type": "Point", "coordinates": [ -9.229344, 6.25019 ] } },
{ "type": "Feature", "properties": { "unique_ID": 73, "town_name": "KANGBO TOWN 2", "HH_count": "129", "adm_distrc": "Doedain", "health_dis": "Doedain", "remoteness": "remote", "duplicates": 1, "CD_cell": "L", "ele": 188.005432, "time": "2015\/07\/17", "mappingRnd": 0, "name": "KANGBO TOWN 2", ">5km": 0, "numHH": 0, "LMS_2015": 0, "ID": 73, "CD_Name": null, "CD_correct": "Yes", "CD_num_HH": "129" }, "geometry": { "type": "Point", "coordinates": [ -9.229643, 6.247325 ] } },
{ "type": "Feature", "properties": { "unique_ID": 74, "town_name": "KPONFUINA VILLAGE", "HH_count": "9", "adm_distrc": "Doedain", "health_dis": "Doedain", "remoteness": "remote", "duplicates": 0, "CD_cell": "L", "ele": 193.200562, "time": "2015\/07\/14", "mappingRnd": 0, "name": "KPONFUINA VILLAGE", ">5km": 0, "numHH": 0, "LMS_2015": 0, "ID": 74, "CD_Name": null, "CD_correct": "Yes", "CD_num_HH": "9" }, "geometry": { "type": "Point", "coordinates": [ -9.229744, 6.247173 ] } },
{ "type": "Feature", "properties": { "unique_ID": 75, "town_name": "KPORKON TOWN", "HH_count": "29", "adm_distrc": "Doedain", "health_dis": "Doedain", "remoteness": "remote", "duplicates": 0, "CD_cell": "L", "ele": 163.332489, "time": "2015\/07\/21", "mappingRnd": 0, "name": "KPORKON TOWN", ">5km": 0, "numHH": 0, "LMS_2015": 0, "ID": 75, "CD_Name": null, "CD_correct": "Yes", "CD_num_HH": "29" }, "geometry": { "type": "Point", "coordinates": [ -9.234504, 6.242616 ] } },
{ "type": "Feature", "properties": { "unique_ID": 76, "town_name": "KPORKOR VILLAGE", "HH_count": "9", "adm_distrc": "Doedain", "health_dis": "Doedain", "remoteness": "remote", "duplicates": 0, "CD_cell": "L", "ele": 186.798294, "time": "2015\/07\/16", "mappingRnd": 0, "name": "KPORKOR VILLAGE", ">5km": 0, "numHH": 0, "LMS_2015": 0, "ID": 76, "CD_Name": null, "CD_correct": "Yes", "CD_num_HH": "9" }, "geometry": { "type": "Point", "coordinates": [ -9.233193, 6.239137 ] } },
{ "type": "Feature", "properties": { "unique_ID": 77, "town_name": "MATTHEW VILLAGE", "HH_count": "0", "adm_distrc": "Doedain", "health_dis": "Doedain", "remoteness": "remote", "duplicates": 0, "CD_cell": null, "ele": 173.993149, "time": "2015\/07\/18", "mappingRnd": 0, "name": "MATTHEW VILLAGE", ">5km": 0, "numHH": 0, "LMS_2015": 0, "ID": 77, "CD_Name": null, "CD_correct": null, "CD_num_HH": null }, "geometry": { "type": "Point", "coordinates": [ -9.240398, 6.227946 ] } },
{ "type": "Feature", "properties": { "unique_ID": 78, "town_name": "NAGBO TOWN 2", "HH_count": "31", "adm_distrc": "Doedain", "health_dis": "Doedain", "remoteness": "remote", "duplicates": 1, "CD_cell": "L", "ele": 176.510315, "time": "2015\/07\/13", "mappingRnd": 0, "name": "NAGBO TOWN 2", ">5km": 0, "numHH": 0, "LMS_2015": 0, "ID": 78, "CD_Name": null, "CD_correct": "Yes", "CD_num_HH": "31" }, "geometry": { "type": "Point", "coordinates": [ -9.233241, 6.23903 ] } },
{ "type": "Feature", "properties": { "unique_ID": 79, "town_name": "NAGBO TOWN JOINTION 3", "HH_count": "10", "adm_distrc": "Doedain", "health_dis": "Doedain", "remoteness": "remote", "duplicates": 1, "CD_cell": "L", "ele": 183.665680, "time": "2015\/07\/11", "mappingRnd": 0, "name": "NAGBO TOWN JOINTION 3", ">5km": 0, "numHH": 0, "LMS_2015": 0, "ID": 79, "CD_Name": null, "CD_correct": "Yes", "CD_num_HH": "10" }, "geometry": { "type": "Point", "coordinates": [ -9.22989, 6.210075 ] } },
{ "type": "Feature", "properties": { "unique_ID": 80, "town_name": "NAIKAH", "HH_count": "18", "adm_distrc": "Doedain", "health_dis": "Doedain", "remoteness": "near-facility", "duplicates": 0, "CD_cell": "L", "ele": 160.947815, "time": "2015\/08\/02", "mappingRnd": 0, "name": "NAIKAH", ">5km": 0, "numHH": 0, "LMS_2015": 0, "ID": 80, "CD_Name": null, "CD_correct": "Yes", "CD_num_HH": "18" }, "geometry": { "type": "Point", "coordinates": [ -9.275248, 6.270521 ] } },
{ "type": "Feature", "properties": { "unique_ID": 81, "town_name": "NORYOU TOWN", "HH_count": "23", "adm_distrc": "Doedain", "health_dis": "Doedain", "remoteness": "remote", "duplicates": 0, "CD_cell": "L", "ele": 168.838287, "time": "2015\/07\/16", "mappingRnd": 0, "name": "NORYOU TOWN", ">5km": 0, "numHH": 0, "LMS_2015": 0, "ID": 81, "CD_Name": null, "CD_correct": "Yes", "CD_num_HH": "23" }, "geometry": { "type": "Point", "coordinates": [ -9.283087, 6.207662 ] } },
{ "type": "Feature", "properties": { "unique_ID": 82, "town_name": "SAYON TOWN", "HH_count": "18", "adm_distrc": "Doedain", "health_dis": "Doedain", "remoteness": "remote", "duplicates": 0, "CD_cell": "___", "ele": 211.707977, "time": "2015\/07\/31", "mappingRnd": 0, "name": "SAYON TOWN", ">5km": 0, "numHH": 0, "LMS_2015": 0, "ID": 82, "CD_Name": null, "CD_correct": "Yes", "CD_num_HH": "18" }, "geometry": { "type": "Point", "coordinates": [ -9.281772, 6.209906 ] } },
{ "type": "Feature", "properties": { "unique_ID": 83, "town_name": "SOMALIA DEBBEH\/GBAZOHNWIEN 1", "HH_count": "12", "adm_distrc": "Doedain", "health_dis": "Doedain", "remoteness": "remote", "duplicates": 1, "CD_cell": "___", "ele": 225.701538, "time": "2015\/07\/17", "mappingRnd": 0, "name": "SOMALIA DEBBEH\/GBAZOHNWIEN 1", ">5km": 0, "numHH": 0, "LMS_2015": 0, "ID": 83, "CD_Name": null, "CD_correct": "Yes", "CD_num_HH": "12" }, "geometry": { "type": "Point", "coordinates": [ -9.282249, 6.210197 ] } },
{ "type": "Feature", "properties": { "unique_ID": 84, "town_name": "SUAKON DEBBEH TOWN 2", "HH_count": "27", "adm_distrc": "Doedain", "health_dis": "Doedain", "remoteness": "remote", "duplicates": 1, "CD_cell": "___", "ele": 228.743057, "time": "2015\/07\/17", "mappingRnd": 0, "name": "SUAKON DEBBEH TOWN 2", ">5km": 0, "numHH": 0, "LMS_2015": 0, "ID": 84, "CD_Name": null, "CD_correct": "Yes", "CD_num_HH": "27" }, "geometry": { "type": "Point", "coordinates": [ -9.282883, 6.211327 ] } },
{ "type": "Feature", "properties": { "unique_ID": 85, "town_name": "SWEET MOTHER\/DOZOHN TOWN 2", "HH_count": "0", "adm_distrc": "Doedain", "health_dis": "Doedain", "remoteness": "remote", "duplicates": 1, "CD_cell": null, "ele": 189.572693, "time": "2015\/07\/11", "mappingRnd": 0, "name": "SWEET MOTHER\/DOZOHN TOWN 2", ">5km": 0, "numHH": 0, "LMS_2015": 0, "ID": 85, "CD_Name": null, "CD_correct": null, "CD_num_HH": null }, "geometry": { "type": "Point", "coordinates": [ -9.284816, 6.21433 ] } },
{ "type": "Feature", "properties": { "unique_ID": 86, "town_name": "TIAH TOWN 2", "HH_count": "15", "adm_distrc": "Doedain", "health_dis": "Doedain", "remoteness": "remote", "duplicates": 1, "CD_cell": "L", "ele": 162.427078, "time": "2015\/07\/20", "mappingRnd": 0, "name": "TIAH TOWN 2", ">5km": 0, "numHH": 0, "LMS_2015": 0, "ID": 86, "CD_Name": null, "CD_correct": "Yes", "CD_num_HH": "15" }, "geometry": { "type": "Point", "coordinates": [ -9.285768, 6.214065 ] } },
{ "type": "Feature", "properties": { "unique_ID": 87, "town_name": "TOBAY VILLAGE 2", "HH_count": "3", "adm_distrc": "Doedain", "health_dis": "Doedain", "remoteness": "remote", "duplicates": 1, "CD_cell": "L", "ele": 176.499588, "time": "2015\/07\/11", "mappingRnd": 0, "name": "TOBAY VILLAGE 2", ">5km": 0, "numHH": 0, "LMS_2015": 0, "ID": 87, "CD_Name": null, "CD_correct": "Yes", "CD_num_HH": "3" }, "geometry": { "type": "Point", "coordinates": [ -9.287935, 6.213362 ] } },
{ "type": "Feature", "properties": { "unique_ID": 88, "town_name": "TODAY TOWN", "HH_count": "22", "adm_distrc": "Doedain", "health_dis": "Doedain", "remoteness": "near-facility", "duplicates": 0, "CD_cell": "L", "ele": 185.377380, "time": "2015\/07\/16", "mappingRnd": 0, "name": "TODAY TOWN", ">5km": 0, "numHH": 0, "LMS_2015": 0, "ID": 88, "CD_Name": null, "CD_correct": "Yes", "CD_num_HH": "22" }, "geometry": { "type": "Point", "coordinates": [ -9.321664, 6.150229 ] } },
{ "type": "Feature", "properties": { "unique_ID": 89, "town_name": "ZEEGAR TOWN 2", "HH_count": "21", "adm_distrc": "Doedain", "health_dis": "Doedain", "remoteness": "remote", "duplicates": 1, "CD_cell": "L", "ele": 187.688812, "time": "2015\/07\/16", "mappingRnd": 0, "name": "ZEEGAR TOWN 2", ">5km": 0, "numHH": 0, "LMS_2015": 0, "ID": 89, "CD_Name": null, "CD_correct": "Yes", "CD_num_HH": "21" }, "geometry": { "type": "Point", "coordinates": [ -9.278758, 6.180769 ] } },
{ "type": "Feature", "properties": { "unique_ID": 90, "town_name": "ZINCGBOHN VILLAGE 1", "HH_count": "11", "adm_distrc": "Doedain", "health_dis": "Doedain", "remoteness": "remote", "duplicates": 1, "CD_cell": "___", "ele": 230.092865, "time": "2015\/07\/17", "mappingRnd": 0, "name": "ZINCGBOHN VILLAGE 1", ">5km": 0, "numHH": 0, "LMS_2015": 0, "ID": 90, "CD_Name": null, "CD_correct": "Yes", "CD_num_HH": "11" }, "geometry": { "type": "Point", "coordinates": [ -9.279882, 6.175912 ] } },
{ "type": "Feature", "properties": { "unique_ID": 91, "town_name": "ZLAYE TOWN", "HH_count": "12", "adm_distrc": "Doedain", "health_dis": "Doedain", "remoteness": "remote", "duplicates": 0, "CD_cell": "___", "ele": 193.946426, "time": "2015\/08\/01", "mappingRnd": 0, "name": "ZLAYE TOWN", ">5km": 0, "numHH": 0, "LMS_2015": 0, "ID": 91, "CD_Name": null, "CD_correct": "Yes", "CD_num_HH": "12" }, "geometry": { "type": "Point", "coordinates": [ -9.27993, 6.175659 ] } },
{ "type": "Feature", "properties": { "unique_ID": 92, "town_name": "ZOEWULUN TOWN", "HH_count": "26", "adm_distrc": "Doedain", "health_dis": "Doedain", "remoteness": "remote", "duplicates": 0, "CD_cell": "L", "ele": 181.537964, "time": "2015\/07\/15", "mappingRnd": 0, "name": "ZOEWULUN TOWN", ">5km": 0, "numHH": 0, "LMS_2015": 0, "ID": 92, "CD_Name": null, "CD_correct": "Yes", "CD_num_HH": "26" }, "geometry": { "type": "Point", "coordinates": [ -9.280133, 6.175342 ] } },
{ "type": "Feature", "properties": { "unique_ID": 93, "town_name": "JUNIOR VILLAGE", "HH_count": "4", "adm_distrc": "Doedain", "health_dis": "Doedain", "remoteness": "remote", "duplicates": 0, "CD_cell": "L", "ele": 146.163223, "time": "2015\/07\/17", "mappingRnd": 0, "name": "JUNIOR VILLAGE", ">5km": 0, "numHH": 0, "LMS_2015": 0, "ID": 93, "CD_Name": null, "CD_correct": "Yes", "CD_num_HH": "4" }, "geometry": { "type": "Point", "coordinates": [ -9.353402, 6.122102 ] } },
{ "type": "Feature", "properties": { "unique_ID": 94, "town_name": "FRIDAY BORBOR", "HH_count": "6", "adm_distrc": "Fen River", "health_dis": "Timbo West", "remoteness": "near-facility", "duplicates": 0, "CD_cell": "CC", "ele": 55.329163, "time": "2015\/07\/16", "mappingRnd": 2, "name": "FRIDAY BORBOR", ">5km": 0, "numHH": 0, "LMS_2015": 0, "ID": 1, "CD_Name": "CU Friday Borbor", "CD_correct": null, "CD_num_HH": "6" }, "geometry": { "type": "Point", "coordinates": [ -9.623274, 5.65363 ] } },
{ "type": "Feature", "properties": { "unique_ID": 95, "town_name": "LIBERIA INLAND MISSION", "HH_count": "19", "adm_distrc": "Fen River", "health_dis": "Timbo West", "remoteness": "near-facility", "duplicates": 0, "CD_cell": "CC", "ele": 87.193207, "time": "2015\/07\/17", "mappingRnd": 2, "name": "LIBERIA INLAND MISSION", ">5km": 0, "numHH": 0, "LMS_2015": 0, "ID": 2, "CD_Name": "CU Lib. Inland Mission", "CD_correct": null, "CD_num_HH": "19" }, "geometry": { "type": "Point", "coordinates": [ -9.61828, 5.682528 ] } },
{ "type": "Feature", "properties": { "unique_ID": 96, "town_name": "BORKON1", "HH_count": "10", "adm_distrc": "Fen River", "health_dis": "Timbo West", "remoteness": "remote", "duplicates": 1, "CD_cell": "CC", "ele": 46.996330, "time": "2015\/07\/17", "mappingRnd": 2, "name": "BORKON", ">5km": 0, "numHH": 0, "LMS_2015": 0, "ID": 3, "CD_Name": "CU Borkon", "CD_correct": null, "CD_num_HH": "10" }, "geometry": { "type": "Point", "coordinates": [ -9.665355, 5.671828 ] } },
{ "type": "Feature", "properties": { "unique_ID": 97, "town_name": "CHEESEMAN", "HH_count": "4", "adm_distrc": "Fen River", "health_dis": "Timbo West", "remoteness": "remote", "duplicates": 0, "CD_cell": "CC", "ele": 63.495708, "time": "2015\/07\/10", "mappingRnd": 2, "name": "CHEESEMAN", ">5km": 0, "numHH": 0, "LMS_2015": 0, "ID": 4, "CD_Name": "CU Cheeseman", "CD_correct": null, "CD_num_HH": "4" }, "geometry": { "type": "Point", "coordinates": [ -9.629861, 5.623617 ] } },
{ "type": "Feature", "properties": { "unique_ID": 98, "town_name": "GBESEE TOWN", "HH_count": "37", "adm_distrc": "Fen River", "health_dis": "Timbo West", "remoteness": "near-facility", "duplicates": 0, "CD_cell": "CC", "ele": 72.379517, "time": "2015\/07\/10", "mappingRnd": 2, "name": "GBESEE TOWN", ">5km": 0, "numHH": 0, "LMS_2015": 0, "ID": 5, "CD_Name": "Cu Gbesee Town", "CD_correct": null, "CD_num_HH": "37" }, "geometry": { "type": "Point", "coordinates": [ -9.617643, 5.708864 ] } },
{ "type": "Feature", "properties": { "unique_ID": 99, "town_name": "PALM BUSH", "HH_count": "11", "adm_distrc": "Fen River", "health_dis": "Timbo West", "remoteness": "near-facility", "duplicates": 0, "CD_cell": "CC", "ele": 69.527863, "time": "2015\/07\/13", "mappingRnd": 2, "name": "PALM BUSH", ">5km": 0, "numHH": 0, "LMS_2015": 0, "ID": 6, "CD_Name": "CU Palm Bush", "CD_correct": null, "CD_num_HH": "11" }, "geometry": { "type": "Point", "coordinates": [ -9.619937, 5.696742 ] } },
{ "type": "Feature", "properties": { "unique_ID": 100, "town_name": "TOWEH TOWN", "HH_count": "7", "adm_distrc": "Fen River", "health_dis": "Timbo West", "remoteness": "remote", "duplicates": 0, "CD_cell": "LC", "ele": 60.145889, "time": "2015\/06\/11", "mappingRnd": 2, "name": "TOWEH TOWN", ">5km": 0, "numHH": 0, "LMS_2015": 0, "ID": 7, "CD_Name": "CU Tonweh Town", "CD_correct": null, "CD_num_HH": "7" }, "geometry": { "type": "Point", "coordinates": [ -9.639389, 5.607286 ] } },
{ "type": "Feature", "properties": { "unique_ID": 101, "town_name": "MANDEH TOWN2", "HH_count": "12", "adm_distrc": "Fen River", "health_dis": "Timbo West", "remoteness": "near-facility", "duplicates": 1, "CD_cell": "CC", "ele": 67.330688, "time": "2015\/07\/11", "mappingRnd": 2, "name": "MANDEH TOWN", ">5km": 0, "numHH": 0, "LMS_2015": 0, "ID": 8, "CD_Name": "Cu Manneh Town", "CD_correct": null, "CD_num_HH": "12" }, "geometry": { "type": "Point", "coordinates": [ -9.619098, 5.700138 ] } },
{ "type": "Feature", "properties": { "unique_ID": 102, "town_name": "QUITOE", "HH_count": "22", "adm_distrc": "Fen River", "health_dis": "Timbo West", "remoteness": "near-facility", "duplicates": 0, "CD_cell": "CC", "ele": 68.191284, "time": "2015\/07\/13", "mappingRnd": 2, "name": "QUITOE", ">5km": 0, "numHH": 0, "LMS_2015": 0, "ID": 9, "CD_Name": "CU Quitoe", "CD_correct": null, "CD_num_HH": "22" }, "geometry": { "type": "Point", "coordinates": [ -9.61577, 5.690536 ] } },
{ "type": "Feature", "properties": { "unique_ID": 103, "town_name": "BANAMAH1", "HH_count": "15", "adm_distrc": "Fen River", "health_dis": "Timbo West", "remoteness": "remote", "duplicates": 1, "CD_cell": "CC", "ele": 64.469894, "time": "2015\/07\/13", "mappingRnd": 2, "name": "BANAMAH", ">5km": 0, "numHH": 0, "LMS_2015": 0, "ID": 10, "CD_Name": "CU Banamah", "CD_correct": null, "CD_num_HH": "15" }, "geometry": { "type": "Point", "coordinates": [ -9.611978, 5.687194 ] } },
{ "type": "Feature", "properties": { "unique_ID": 104, "town_name": "ZIAH1", "HH_count": "26", "adm_distrc": "Fen River", "health_dis": "Timbo West", "remoteness": "remote", "duplicates": 1, "CD_cell": "CC", "ele": 72.791382, "time": "2015\/07\/13", "mappingRnd": 2, "name": "ZIAH", ">5km": 0, "numHH": 0, "LMS_2015": 0, "ID": 11, "CD_Name": "CU Ziah", "CD_correct": null, "CD_num_HH": "26" }, "geometry": { "type": "Point", "coordinates": [ -9.596834, 5.693772 ] } },
{ "type": "Feature", "properties": { "unique_ID": 105, "town_name": "GOGO TOWN", "HH_count": "3", "adm_distrc": "Fen River", "health_dis": "Timbo West", "remoteness": "remote", "duplicates": 0, "CD_cell": "LC", "ele": 49.397774, "time": "2015\/06\/11", "mappingRnd": 2, "name": "GOGO TOWN", ">5km": 0, "numHH": 0, "LMS_2015": 0, "ID": 12, "CD_Name": "CU Gogo Town", "CD_correct": null, "CD_num_HH": "3" }, "geometry": { "type": "Point", "coordinates": [ -9.667327, 5.610381 ] } },
{ "type": "Feature", "properties": { "unique_ID": 106, "town_name": "LOLINE", "HH_count": "7", "adm_distrc": "Fen River", "health_dis": "Timbo West", "remoteness": "near-facility", "duplicates": 0, "CD_cell": "CC", "ele": 66.481766, "time": "2015\/07\/15", "mappingRnd": 2, "name": "LOLINE", ">5km": 0, "numHH": 0, "LMS_2015": 0, "ID": 13, "CD_Name": "CU Loline", "CD_correct": null, "CD_num_HH": "7" }, "geometry": { "type": "Point", "coordinates": [ -9.619822, 5.639448 ] } },
{ "type": "Feature", "properties": { "unique_ID": 107, "town_name": "KUYATEH VILLAGE", "HH_count": "2", "adm_distrc": "Fen River", "health_dis": "Timbo West", "remoteness": "remote", "duplicates": 0, "CD_cell": "CC", "ele": 60.365463, "time": "2015\/07\/14", "mappingRnd": 2, "name": "KUYATEH VILLAGE", ">5km": 0, "numHH": 0, "LMS_2015": 0, "ID": 14, "CD_Name": "CU Kuyateh", "CD_correct": null, "CD_num_HH": "2" }, "geometry": { "type": "Point", "coordinates": [ -9.646154, 5.696694 ] } },
{ "type": "Feature", "properties": { "unique_ID": 108, "town_name": "DOEGBAHN VILLAGE1", "HH_count": "4", "adm_distrc": "Fen River", "health_dis": "Timbo West", "remoteness": "near-facility", "duplicates": 1, "CD_cell": "CC", "ele": 64.325958, "time": "2015\/07\/16", "mappingRnd": 2, "name": "DOEGBAHN VILLAGE", ">5km": 0, "numHH": 0, "LMS_2015": 0, "ID": 15, "CD_Name": "CU Doegbah Village", "CD_correct": null, "CD_num_HH": "4" }, "geometry": { "type": "Point", "coordinates": [ -9.646168, 5.647718 ] } },
{ "type": "Feature", "properties": { "unique_ID": 109, "town_name": "YEADAY", "HH_count": "45", "adm_distrc": "Fen River", "health_dis": "Timbo West", "remoteness": "remote", "duplicates": 0, "CD_cell": "CC", "ele": 58.290871, "time": "2015\/07\/10", "mappingRnd": 0, "name": "019", ">5km": 0, "numHH": 0, "LMS_2015": 0, "ID": 16, "CD_Name": "CU Yeaday", "CD_correct": null, "CD_num_HH": "45" }, "geometry": { "type": "Point", "coordinates": [ -9.629895, 5.617367 ] } },
{ "type": "Feature", "properties": { "unique_ID": 110, "town_name": "SAMBLOH TOWN1", "HH_count": "10", "adm_distrc": "Fen River", "health_dis": "Timbo West", "remoteness": "remote", "duplicates": 1, "CD_cell": "LC", "ele": 48.346230, "time": "2015\/06\/11", "mappingRnd": 0, "name": "022", ">5km": 0, "numHH": 0, "LMS_2015": 0, "ID": 21, "CD_Name": "CU Samgblog", "CD_correct": null, "CD_num_HH": "10" }, "geometry": { "type": "Point", "coordinates": [ -9.660577, 5.598671 ] } },
{ "type": "Feature", "properties": { "unique_ID": 111, "town_name": "BANWON", "HH_count": "20", "adm_distrc": "Fen River", "health_dis": "Timbo West", "remoteness": "near-facility", "duplicates": 0, "CD_cell": "CC", "ele": 63.420715, "time": "2015\/07\/14", "mappingRnd": 0, "name": "037", ">5km": 0, "numHH": 0, "LMS_2015": 0, "ID": 35, "CD_Name": "Banwon", "CD_correct": null, "CD_num_HH": "20" }, "geometry": { "type": "Point", "coordinates": [ -9.628192, 5.62736 ] } },
{ "type": "Feature", "properties": { "unique_ID": 112, "town_name": "STEWARD\/CHIO 2", "HH_count": "36", "adm_distrc": "Fen River", "health_dis": "Timbo West", "remoteness": "near-facility", "duplicates": 1, "CD_cell": "CC", "ele": 67.263390, "time": "2015\/07\/14", "mappingRnd": 0, "name": "054", ">5km": 0, "numHH": 0, "LMS_2015": 0, "ID": 39, "CD_Name": "Cu Steward\/Chio 2", "CD_correct": null, "CD_num_HH": "36" }, "geometry": { "type": "Point", "coordinates": [ -9.622825, 5.685367 ] } },
{ "type": "Feature", "properties": { "unique_ID": 113, "town_name": "STEWARD\/CHIO TOWN", "HH_count": "39", "adm_distrc": "Fen River", "health_dis": "Timbo West", "remoteness": "near-facility", "duplicates": 1, "CD_cell": "CC", "ele": 60.114086, "time": "2015\/07\/15", "mappingRnd": 0, "name": "057", ">5km": 0, "numHH": 0, "LMS_2015": 0, "ID": 40, "CD_Name": "Cu Steward\/Chio 1", "CD_correct": null, "CD_num_HH": "39" }, "geometry": { "type": "Point", "coordinates": [ -9.621298, 5.679406 ] } },
{ "type": "Feature", "properties": { "unique_ID": 114, "town_name": "CHARLIE TOWN2", "HH_count": "51", "adm_distrc": "Fen River", "health_dis": "Timbo West", "remoteness": "near-facility", "duplicates": 1, "CD_cell": "CC", "ele": 57.443405, "time": "2015\/07\/16", "mappingRnd": 0, "name": "060", ">5km": 0, "numHH": 0, "LMS_2015": 0, "ID": 41, "CD_Name": "CU Charlie Town", "CD_correct": null, "CD_num_HH": "51" }, "geometry": { "type": "Point", "coordinates": [ -9.622162, 5.668562 ] } },
{ "type": "Feature", "properties": { "unique_ID": 115, "town_name": "LITTLE LIBERIA TOWN2", "HH_count": "59", "adm_distrc": "Fen River", "health_dis": "Timbo West", "remoteness": "remote", "duplicates": 1, "CD_cell": "CC", "ele": 61.681297, "time": "2015\/07\/17", "mappingRnd": 0, "name": "054", ">5km": 0, "numHH": 0, "LMS_2015": 0, "ID": 47, "CD_Name": "CU Little Liberia Town", "CD_correct": null, "CD_num_HH": "59" }, "geometry": { "type": "Point", "coordinates": [ -9.631572, 5.607944 ] } },
{ "type": "Feature", "properties": { "unique_ID": 116, "town_name": "GBOAH1", "HH_count": "17", "adm_distrc": "Fen River", "health_dis": "Timbo West", "remoteness": "near-facility", "duplicates": 1, "CD_cell": "LC", "ele": 35.954895, "time": "2015\/01\/27", "mappingRnd": 1, "name": "GBOAH", ">5km": 0, "numHH": 9, "LMS_2015": 0, "ID": 50, "CD_Name": "CU Gboah", "CD_correct": null, "CD_num_HH": "17" }, "geometry": { "type": "Point", "coordinates": [ -9.59466583955828, 5.534760028911261 ] } },
{ "type": "Feature", "properties": { "unique_ID": 117, "town_name": "GBAYELO", "HH_count": "41", "adm_distrc": "Fen River", "health_dis": "Timbo West", "remoteness": "near-facility", "duplicates": 0, "CD_cell": "LC", "ele": 43.629604, "time": "2015\/01\/27", "mappingRnd": 1, "name": "GBAYELO", ">5km": 0, "numHH": null, "LMS_2015": 0, "ID": 51, "CD_Name": "CU Gbayolo", "CD_correct": null, "CD_num_HH": "41" }, "geometry": { "type": "Point", "coordinates": [ -9.627755633088906, 5.560655383048937 ] } },
{ "type": "Feature", "properties": { "unique_ID": 118, "town_name": "WHENZOHN2", "HH_count": "27", "adm_distrc": "Fen River", "health_dis": "Timbo West", "remoteness": "remote", "duplicates": 1, "CD_cell": null, "ele": 48.187157, "time": "2015\/01\/27", "mappingRnd": 1, "name": "WHENZOHN", ">5km": 1, "numHH": 27, "LMS_2015": 1, "ID": 52, "CD_Name": null, "CD_correct": null, "CD_num_HH": null }, "geometry": { "type": "Point", "coordinates": [ -9.61569902539714, 5.549145651160587 ] } },
{ "type": "Feature", "properties": { "unique_ID": 119, "town_name": "STEWARD", "HH_count": "88", "adm_distrc": "Fen River", "health_dis": "Timbo West", "remoteness": "near-facility", "duplicates": 1, "CD_cell": null, "ele": 85.349762, "time": "2015\/02\/25", "mappingRnd": 1, "name": "STEWARD", ">5km": 0, "numHH": 88, "LMS_2015": 1, "ID": 53, "CD_Name": null, "CD_correct": null, "CD_num_HH": null }, "geometry": { "type": "Point", "coordinates": [ -9.621981397048236, 5.680653003616718 ] } },
{ "type": "Feature", "properties": { "unique_ID": 120, "town_name": "CHARLIE1", "HH_count": "60", "adm_distrc": "Fen River", "health_dis": "Timbo West", "remoteness": "near-facility", "duplicates": 1, "CD_cell": null, "ele": 67.303619, "time": "2015\/02\/25", "mappingRnd": 1, "name": "CHARLIE", ">5km": 0, "numHH": 60, "LMS_2015": 0, "ID": 54, "CD_Name": null, "CD_correct": null, "CD_num_HH": null }, "geometry": { "type": "Point", "coordinates": [ -9.620597360247555, 5.662988151403883 ] } },
{ "type": "Feature", "properties": { "unique_ID": 121, "town_name": "CHIO", "HH_count": "69", "adm_distrc": "Fen River", "health_dis": "Timbo West", "remoteness": "near-facility", "duplicates": 0, "CD_cell": null, "ele": 62.726830, "time": "2015\/02\/25", "mappingRnd": 1, "name": "CHIO", ">5km": 0, "numHH": 69, "LMS_2015": 0, "ID": 55, "CD_Name": null, "CD_correct": null, "CD_num_HH": null }, "geometry": { "type": "Point", "coordinates": [ -9.621443028748807, 5.674893603299203 ] } },
{ "type": "Feature", "properties": { "unique_ID": 122, "town_name": "DANGBOH", "HH_count": "41", "adm_distrc": "Fen River", "health_dis": "Timbo West", "remoteness": "near-facility", "duplicates": 0, "CD_cell": "CC", "ele": 43.967033, "time": "2015\/02\/26", "mappingRnd": 1, "name": "DANGBOH", ">5km": 0, "numHH": 39, "LMS_2015": 1, "ID": 56, "CD_Name": "CU Dangboh Town", "CD_correct": null, "CD_num_HH": "41" }, "geometry": { "type": "Point", "coordinates": [ -9.651122, 5.657798 ] } },
{ "type": "Feature", "properties": { "unique_ID": 123, "town_name": "TOBAY", "HH_count": "15", "adm_distrc": "Fen River", "health_dis": "Timbo West", "remoteness": "near-facility", "duplicates": 0, "CD_cell": "CC", "ele": 55.517540, "time": "2015\/02\/26", "mappingRnd": 1, "name": "TOBAY", ">5km": 0, "numHH": 18, "LMS_2015": 0, "ID": 57, "CD_Name": "CU Tobay", "CD_correct": null, "CD_num_HH": "15" }, "geometry": { "type": "Point", "coordinates": [ -9.618664783700975, 5.643772692167259 ] } },
{ "type": "Feature", "properties": { "unique_ID": 124, "town_name": "BLOH", "HH_count": "10", "adm_distrc": "Fen River", "health_dis": "Timbo West", "remoteness": "near-facility", "duplicates": 0, "CD_cell": "CC", "ele": 65.193504, "time": "2015\/02\/26", "mappingRnd": 1, "name": "BLOH", ">5km": 0, "numHH": 11, "LMS_2015": 0, "ID": 58, "CD_Name": "CU Bloh", "CD_correct": null, "CD_num_HH": "10" }, "geometry": { "type": "Point", "coordinates": [ -9.625564573714419, 5.632518146692732 ] } },
{ "type": "Feature", "properties": { "unique_ID": 125, "town_name": "BANAMAH2", "HH_count": "17", "adm_distrc": "Fen River", "health_dis": "Timbo West", "remoteness": "near-facility", "duplicates": 1, "CD_cell": null, "ele": 61.490475, "time": "2015\/02\/26", "mappingRnd": 1, "name": "BANAMAH", ">5km": 0, "numHH": 17, "LMS_2015": 0, "ID": 59, "CD_Name": null, "CD_correct": null, "CD_num_HH": null }, "geometry": { "type": "Point", "coordinates": [ -9.628021728189994, 5.628778766478397 ] } },
{ "type": "Feature", "properties": { "unique_ID": 126, "town_name": "JAIDA", "HH_count": "25", "adm_distrc": "Fen River", "health_dis": "Timbo West", "remoteness": "remote", "duplicates": 0, "CD_cell": null, "ele": 54.760448, "time": "2015\/02\/26", "mappingRnd": 1, "name": "JAIDA", ">5km": 1, "numHH": 25, "LMS_2015": 0, "ID": 60, "CD_Name": null, "CD_correct": null, "CD_num_HH": null }, "geometry": { "type": "Point", "coordinates": [ -9.629848742235108, 5.618197948785595 ] } },
{ "type": "Feature", "properties": { "unique_ID": 127, "town_name": "DOZONAYON", "HH_count": "7", "adm_distrc": "Fen River", "health_dis": "Timbo West", "remoteness": "remote", "duplicates": 0, "CD_cell": "LC", "ele": 57.450706, "time": "2015\/02\/26", "mappingRnd": 1, "name": "DOZONAYON", ">5km": 1, "numHH": 10, "LMS_2015": 0, "ID": 61, "CD_Name": "Dozohn Mayon", "CD_correct": null, "CD_num_HH": "7" }, "geometry": { "type": "Point", "coordinates": [ -9.65025608124048, 5.604257339191168 ] } },
{ "type": "Feature", "properties": { "unique_ID": 128, "town_name": "TARDA", "HH_count": "21", "adm_distrc": "Fen River", "health_dis": "Timbo West", "remoteness": "remote", "duplicates": 0, "CD_cell": "CC", "ele": 50.752033, "time": "2015\/02\/26", "mappingRnd": 1, "name": "TARDA", ">5km": 1, "numHH": 25, "LMS_2015": 1, "ID": 62, "CD_Name": "CU Tardeh Town", "CD_correct": null, "CD_num_HH": "21" }, "geometry": { "type": "Point", "coordinates": [ -9.659224484953111, 5.606280250041621 ] } },
{ "type": "Feature", "properties": { "unique_ID": 129, "town_name": "BENSON", "HH_count": "11", "adm_distrc": "Fen River", "health_dis": "Timbo West", "remoteness": "remote", "duplicates": 0, "CD_cell": null, "ele": 44.908058, "time": "2015\/02\/26", "mappingRnd": 1, "name": "BENSON", ">5km": 1, "numHH": 11, "LMS_2015": 0, "ID": 63, "CD_Name": null, "CD_correct": null, "CD_num_HH": null }, "geometry": { "type": "Point", "coordinates": [ -9.690155, 5.60907 ] } },
{ "type": "Feature", "properties": { "unique_ID": 130, "town_name": "TIMBO BEACH", "HH_count": "52", "adm_distrc": "Fen River", "health_dis": "Timbo West", "remoteness": "near-facility", "duplicates": 0, "CD_cell": null, "ele": 14.200014, "time": "2015\/02\/26", "mappingRnd": 1, "name": "TIMBO BEACH", ">5km": 0, "numHH": 52, "LMS_2015": 0, "ID": 64, "CD_Name": null, "CD_correct": null, "CD_num_HH": null }, "geometry": { "type": "Point", "coordinates": [ -9.721698271696649, 5.565392448049584 ] } },
{ "type": "Feature", "properties": { "unique_ID": 131, "town_name": "WHEAGAR", "HH_count": "17", "adm_distrc": "Fen River", "health_dis": "Timbo West", "remoteness": "near-facility", "duplicates": 0, "CD_cell": "CC", "ele": 34.053886, "time": "2015\/02\/26", "mappingRnd": 1, "name": "WHEAGAR", ">5km": 0, "numHH": 20, "LMS_2015": 0, "ID": 65, "CD_Name": "CU Wheagar", "CD_correct": null, "CD_num_HH": "17" }, "geometry": { "type": "Point", "coordinates": [ -9.704686, 5.590954 ] } },
{ "type": "Feature", "properties": { "unique_ID": 132, "town_name": "MORRIS1", "HH_count": "17", "adm_distrc": "Fen River", "health_dis": "Timbo West", "remoteness": "remote", "duplicates": 1, "CD_cell": "CC", "ele": 19.690655, "time": "2015\/02\/26", "mappingRnd": 1, "name": "MORRIS", ">5km": 1, "numHH": 75, "LMS_2015": 1, "ID": 66, "CD_Name": "CU Morris Town", "CD_correct": null, "CD_num_HH": "17" }, "geometry": { "type": "Point", "coordinates": [ -9.692124, 5.577126 ] } },
{ "type": "Feature", "properties": { "unique_ID": 133, "town_name": "KARDO", "HH_count": "12", "adm_distrc": "Fen River", "health_dis": "Timbo West", "remoteness": "remote", "duplicates": 0, "CD_cell": "LC", "ele": 23.657782, "time": "2015\/02\/26", "mappingRnd": 1, "name": "KARDO", ">5km": 1, "numHH": 11, "LMS_2015": 0, "ID": 67, "CD_Name": "CU Kordoe", "CD_correct": null, "CD_num_HH": "12" }, "geometry": { "type": "Point", "coordinates": [ -9.683513, 5.572112 ] } },
{ "type": "Feature", "properties": { "unique_ID": 134, "town_name": "BORWIN", "HH_count": "15", "adm_distrc": "Fen River", "health_dis": "Timbo West", "remoteness": "remote", "duplicates": 0, "CD_cell": null, "ele": 51.258396, "time": "2015\/02\/26", "mappingRnd": 1, "name": "BORWIN", ">5km": 1, "numHH": 15, "LMS_2015": 0, "ID": 68, "CD_Name": null, "CD_correct": null, "CD_num_HH": null }, "geometry": { "type": "Point", "coordinates": [ -9.676997683020829, 5.618344620432254 ] } },
{ "type": "Feature", "properties": { "unique_ID": 135, "town_name": "LITTLE LIBERIA1", "HH_count": "47", "adm_distrc": "Fen River", "health_dis": "Timbo West", "remoteness": "remote", "duplicates": 1, "CD_cell": null, "ele": 59.831306, "time": "2015\/02\/26", "mappingRnd": 1, "name": "LITTLE LIBERIA", ">5km": 1, "numHH": 47, "LMS_2015": 0, "ID": 69, "CD_Name": null, "CD_correct": null, "CD_num_HH": null }, "geometry": { "type": "Point", "coordinates": [ -9.631100369892641, 5.612307471069364 ] } },
{ "type": "Feature", "properties": { "unique_ID": 136, "town_name": "ZOR1", "HH_count": "11", "adm_distrc": "Fen River", "health_dis": "Timbo West", "remoteness": "remote", "duplicates": 1, "CD_cell": "LC", "ele": 40.717247, "time": "2015\/03\/02", "mappingRnd": 1, "name": "ZOR", ">5km": 1, "numHH": 11, "LMS_2015": 0, "ID": 70, "CD_Name": "CU Zor", "CD_correct": null, "CD_num_HH": "39" }, "geometry": { "type": "Point", "coordinates": [ -9.617502, 5.568882 ] } },
{ "type": "Feature", "properties": { "unique_ID": 137, "town_name": "BORKON2", "HH_count": "15", "adm_distrc": "Fen River", "health_dis": "Timbo West", "remoteness": "remote", "duplicates": 1, "CD_cell": null, "ele": 48.570145, "time": "2015\/03\/02", "mappingRnd": 1, "name": "BORKON", ">5km": 1, "numHH": 15, "LMS_2015": 0, "ID": 71, "CD_Name": null, "CD_correct": null, "CD_num_HH": null }, "geometry": { "type": "Point", "coordinates": [ -9.630724866183838, 5.600310166408887 ] } },
{ "type": "Feature", "properties": { "unique_ID": 138, "town_name": "DOEGBON1", "HH_count": "20", "adm_distrc": "Fen River", "health_dis": "Timbo West", "remoteness": "remote", "duplicates": 1, "CD_cell": "CC", "ele": 53.148170, "time": "2015\/03\/02", "mappingRnd": 1, "name": "DOEGBON", ">5km": 1, "numHH": 17, "LMS_2015": 0, "ID": 72, "CD_Name": "CU Doegbon", "CD_correct": null, "CD_num_HH": "20" }, "geometry": { "type": "Point", "coordinates": [ -9.628081533190859, 5.591787649844013 ] } },
{ "type": "Feature", "properties": { "unique_ID": 139, "town_name": "WAYZOHN", "HH_count": "26", "adm_distrc": "Fen River", "health_dis": "Timbo West", "remoteness": "remote", "duplicates": 1, "CD_cell": "CC", "ele": 38.867859, "time": "2015\/03\/02", "mappingRnd": 1, "name": "WAYZOHN", ">5km": 1, "numHH": 25, "LMS_2015": 0, "ID": 73, "CD_Name": "CU Wayzohn", "CD_correct": null, "CD_num_HH": "26" }, "geometry": { "type": "Point", "coordinates": [ -9.624643702006436, 5.580438930200294 ] } },
{ "type": "Feature", "properties": { "unique_ID": 140, "town_name": "BORBORHAMITON", "HH_count": "13", "adm_distrc": "Fen River", "health_dis": "Timbo West", "remoteness": "remote", "duplicates": 0, "CD_cell": "LC", "ele": 36.735985, "time": "2015\/03\/02", "mappingRnd": 1, "name": "BORBORHAMITON", ">5km": 1, "numHH": 31, "LMS_2015": 1, "ID": 74, "CD_Name": "CU Borbor Hamilton", "CD_correct": null, "CD_num_HH": "13" }, "geometry": { "type": "Point", "coordinates": [ -9.636312, 5.57133 ] } },
{ "type": "Feature", "properties": { "unique_ID": 141, "town_name": "MANDEN3", "HH_count": "32", "adm_distrc": "Fen River", "health_dis": "Timbo West", "remoteness": "remote", "duplicates": 1, "CD_cell": null, "ele": 47.837227, "time": "2015\/03\/02", "mappingRnd": 1, "name": "MANDEN", ">5km": 1, "numHH": 32, "LMS_2015": 1, "ID": 75, "CD_Name": null, "CD_correct": null, "CD_num_HH": null }, "geometry": { "type": "Point", "coordinates": [ -9.625598249234882, 5.564145596762013 ] } },
{ "type": "Feature", "properties": { "unique_ID": 142, "town_name": "CHAI", "HH_count": "11", "adm_distrc": "Fen River", "health_dis": "Timbo West", "remoteness": "near-facility", "duplicates": 0, "CD_cell": null, "ele": 37.905556, "time": "2015\/03\/02", "mappingRnd": 1, "name": "CHAI", ">5km": 0, "numHH": 11, "LMS_2015": 0, "ID": 76, "CD_Name": null, "CD_correct": null, "CD_num_HH": null }, "geometry": { "type": "Point", "coordinates": [ -9.630557585489578, 5.548095399582891 ] } },
{ "type": "Feature", "properties": { "unique_ID": 143, "town_name": "GBAH", "HH_count": "13", "adm_distrc": "Fen River", "health_dis": "Timbo West", "remoteness": "near-facility", "duplicates": 0, "CD_cell": "LC", "ele": 39.278587, "time": "2015\/03\/02", "mappingRnd": 1, "name": "GBAH", ">5km": 0, "numHH": 12, "LMS_2015": 1, "ID": 77, "CD_Name": "CU Gbay", "CD_correct": null, "CD_num_HH": "13" }, "geometry": { "type": "Point", "coordinates": [ -9.62894107026583, 5.544327581115265 ] } },
{ "type": "Feature", "properties": { "unique_ID": 144, "town_name": "ZIAH2", "HH_count": "23", "adm_distrc": "Fen River", "health_dis": "Timbo West", "remoteness": "near-facility", "duplicates": 1, "CD_cell": "LC", "ele": 29.044735, "time": "2015\/03\/02", "mappingRnd": 1, "name": "ZIAH", ">5km": 1, "numHH": 15, "LMS_2015": 0, "ID": 78, "CD_Name": "CU Ziah Town", "CD_correct": null, "CD_num_HH": "23" }, "geometry": { "type": "Point", "coordinates": [ -9.645086, 5.534833 ] } },
{ "type": "Feature", "properties": { "unique_ID": 145, "town_name": "WEHWAY", "HH_count": "23", "adm_distrc": "Fen River", "health_dis": "Timbo West", "remoteness": "remote", "duplicates": 0, "CD_cell": "LC", "ele": 20.152178, "time": "2015\/03\/02", "mappingRnd": 1, "name": "WEHWAY", ">5km": 1, "numHH": 21, "LMS_2015": 0, "ID": 79, "CD_Name": "CU Weh wah", "CD_correct": null, "CD_num_HH": "23" }, "geometry": { "type": "Point", "coordinates": [ -9.660307, 5.521585 ] } },
{ "type": "Feature", "properties": { "unique_ID": 146, "town_name": "WLEH", "HH_count": "17", "adm_distrc": "Fen River", "health_dis": "Timbo West", "remoteness": "remote", "duplicates": 0, "CD_cell": "LC", "ele": 17.903336, "time": "2015\/03\/02", "mappingRnd": 1, "name": "WLEH", ">5km": 1, "numHH": 29, "LMS_2015": 0, "ID": 80, "CD_Name": "CU Wleh Town", "CD_correct": null, "CD_num_HH": "17" }, "geometry": { "type": "Point", "coordinates": [ -9.669354, 5.527467 ] } },
{ "type": "Feature", "properties": { "unique_ID": 147, "town_name": "GARYEAZOHN", "HH_count": "15", "adm_distrc": "Fen River", "health_dis": "Timbo West", "remoteness": "remote", "duplicates": 0, "CD_cell": "LC", "ele": 41.640732, "time": "2015\/03\/02", "mappingRnd": 1, "name": "GARYEAZOHN", ">5km": 1, "numHH": 75, "LMS_2015": 1, "ID": 81, "CD_Name": "CU Garyeazohn", "CD_correct": null, "CD_num_HH": "15" }, "geometry": { "type": "Point", "coordinates": [ -9.67145, 5.550115 ] } },
{ "type": "Feature", "properties": { "unique_ID": 148, "town_name": "GUAH", "HH_count": "11", "adm_distrc": "Fen River", "health_dis": "Timbo West", "remoteness": "remote", "duplicates": 0, "CD_cell": null, "ele": 51.312237, "time": "2015\/02\/27", "mappingRnd": 1, "name": "GUAH", ">5km": 1, "numHH": 11, "LMS_2015": 0, "ID": 82, "CD_Name": null, "CD_correct": null, "CD_num_HH": null }, "geometry": { "type": "Point", "coordinates": [ -9.658615, 5.621392 ] } },
{ "type": "Feature", "properties": { "unique_ID": 149, "town_name": "SAMBLOH2", "HH_count": "21", "adm_distrc": "Fen River", "health_dis": "Timbo West", "remoteness": "remote", "duplicates": 1, "CD_cell": null, "ele": 47.881607, "time": "2015\/02\/27", "mappingRnd": 1, "name": "SAMBLOH", ">5km": 1, "numHH": 21, "LMS_2015": 1, "ID": 83, "CD_Name": null, "CD_correct": null, "CD_num_HH": null }, "geometry": { "type": "Point", "coordinates": [ -9.662989, 5.636642 ] } },
{ "type": "Feature", "properties": { "unique_ID": 150, "town_name": "POKPAYE", "HH_count": "11", "adm_distrc": "Fen River", "health_dis": "Timbo West", "remoteness": "remote", "duplicates": 0, "CD_cell": null, "ele": 123.027786, "time": "2015\/02\/07", "mappingRnd": 1, "name": "POKPAYE", ">5km": 1, "numHH": 11, "LMS_2015": 0, "ID": 84, "CD_Name": null, "CD_correct": null, "CD_num_HH": null }, "geometry": { "type": "Point", "coordinates": [ -9.660444, 5.59883 ] } },
{ "type": "Feature", "properties": { "unique_ID": 151, "town_name": "CHIEA", "HH_count": "13", "adm_distrc": "Fen River", "health_dis": "Timbo West", "remoteness": "near-facility", "duplicates": 0, "CD_cell": "LC", "ele": 40.564278, "time": "2015\/07\/30", "mappingRnd": 0, "name": "124", ">5km": 0, "numHH": 0, "LMS_2015": 0, "ID": 100, "CD_Name": "CU Chiea", "CD_correct": null, "CD_num_HH": "13" }, "geometry": { "type": "Point", "coordinates": [ -9.629692, 5.550206 ] } },
{ "type": "Feature", "properties": { "unique_ID": 152, "town_name": "ZEO VILLAGE", "HH_count": "25", "adm_distrc": "Fen River", "health_dis": "Timbo West", "remoteness": "remote", "duplicates": 0, "CD_cell": "CC", "ele": 46.965218, "time": "2015\/07\/22", "mappingRnd": 0, "name": "136", ">5km": 0, "numHH": 0, "LMS_2015": 0, "ID": 101, "CD_Name": "CU Zeo Town", "CD_correct": null, "CD_num_HH": "25" }, "geometry": { "type": "Point", "coordinates": [ -9.631611, 5.638954 ] } },
{ "type": "Feature", "properties": { "unique_ID": 153, "town_name": "PAUL TOWN", "HH_count": "4", "adm_distrc": "Fen River", "health_dis": "Timbo West", "remoteness": "remote", "duplicates": 0, "CD_cell": "___", "ele": 35.075184, "time": "2015\/07\/22", "mappingRnd": 0, "name": "145", ">5km": 0, "numHH": 0, "LMS_2015": 0, "ID": 103, "CD_Name": "CU Paul Town", "CD_correct": null, "CD_num_HH": "4" }, "geometry": { "type": "Point", "coordinates": [ -9.691809, 5.607066 ] } },
{ "type": "Feature", "properties": { "unique_ID": 154, "town_name": "YEA VILLAGE", "HH_count": "13", "adm_distrc": "Fen River", "health_dis": "Timbo West", "remoteness": "remote", "duplicates": 0, "CD_cell": "CC", "ele": 27.505243, "time": "2015\/07\/22", "mappingRnd": 0, "name": "148", ">5km": 0, "numHH": 0, "LMS_2015": 0, "ID": 104, "CD_Name": "CU Yea Village", "CD_correct": null, "CD_num_HH": "13" }, "geometry": { "type": "Point", "coordinates": [ -9.698571, 5.608094 ] } },
{ "type": "Feature", "properties": { "unique_ID": 155, "town_name": "CHECKPOIT", "HH_count": "9", "adm_distrc": "Fen River", "health_dis": "Timbo West", "remoteness": "remote", "duplicates": 0, "CD_cell": "LC", "ele": 36.358711, "time": "2015\/08\/07", "mappingRnd": 0, "name": "260", ">5km": 0, "numHH": 0, "LMS_2015": 0, "ID": 105, "CD_Name": "CU Check Point", "CD_correct": null, "CD_num_HH": "9" }, "geometry": { "type": "Point", "coordinates": [ -9.638683, 5.559881 ] } },
{ "type": "Feature", "properties": { "unique_ID": 156, "town_name": "WEAH VILLAGE", "HH_count": "7", "adm_distrc": "Fen River", "health_dis": "Timbo West", "remoteness": "remote", "duplicates": 0, "CD_cell": "CC", "ele": 28.800646, "time": "2015\/08\/07", "mappingRnd": 0, "name": "263", ">5km": 0, "numHH": 0, "LMS_2015": 0, "ID": 106, "CD_Name": "CU Weah Village", "CD_correct": null, "CD_num_HH": "7" }, "geometry": { "type": "Point", "coordinates": [ -9.64654, 5.551177 ] } },
{ "type": "Feature", "properties": { "unique_ID": 157, "town_name": "DOE TOWN", "HH_count": "32", "adm_distrc": "Fen River", "health_dis": "Timbo West", "remoteness": "remote", "duplicates": 0, "CD_cell": "LC", "ele": 11.129486, "time": "2015\/08\/07", "mappingRnd": 0, "name": "286", ">5km": 0, "numHH": 0, "LMS_2015": 0, "ID": 107, "CD_Name": "CU Doe Town", "CD_correct": null, "CD_num_HH": "32" }, "geometry": { "type": "Point", "coordinates": [ -9.666055, 5.554038 ] } },
{ "type": "Feature", "properties": { "unique_ID": 158, "town_name": "GBRYEAZOHN TOWN", "HH_count": "0", "adm_distrc": "Fen River", "health_dis": "Timbo West", "remoteness": "remote", "duplicates": 0, "CD_cell": null, "ele": 29.048677, "time": "2015\/08\/07", "mappingRnd": 0, "name": "289", ">5km": 0, "numHH": 0, "LMS_2015": 0, "ID": 108, "CD_Name": null, "CD_correct": null, "CD_num_HH": null }, "geometry": { "type": "Point", "coordinates": [ -9.671466, 5.548411 ] } },
{ "type": "Feature", "properties": { "unique_ID": 159, "town_name": "GEEBO TOWN", "HH_count": "0", "adm_distrc": "Fen River", "health_dis": "Timbo West", "remoteness": "remote", "duplicates": 0, "CD_cell": null, "ele": 19.482155, "time": "2015\/08\/07", "mappingRnd": 0, "name": "291", ">5km": 0, "numHH": 0, "LMS_2015": 0, "ID": 109, "CD_Name": null, "CD_correct": null, "CD_num_HH": null }, "geometry": { "type": "Point", "coordinates": [ -9.679908, 5.536284 ] } },
{ "type": "Feature", "properties": { "unique_ID": 160, "town_name": "MORRIS TOWN2", "HH_count": "2", "adm_distrc": "Fen River", "health_dis": "Timbo West", "remoteness": "near-facility", "duplicates": 1, "CD_cell": "LC", "ele": 27.753193, "time": "2015\/07\/31", "mappingRnd": 0, "name": "177", ">5km": 0, "numHH": 0, "LMS_2015": 0, "ID": 112, "CD_Name": "CU Morris Town", "CD_correct": null, "CD_num_HH": "2" }, "geometry": { "type": "Point", "coordinates": [ -9.694896, 5.581686 ] } },
{ "type": "Feature", "properties": { "unique_ID": 161, "town_name": "GBOZOHN VILLAGE", "HH_count": "6", "adm_distrc": "Fen River", "health_dis": "Timbo West", "remoteness": "remote", "duplicates": 0, "CD_cell": "CC", "ele": 34.314949, "time": "2015\/07\/31", "mappingRnd": 0, "name": "183", ">5km": 0, "numHH": 0, "LMS_2015": 0, "ID": 113, "CD_Name": "CU Gbozohn Ville", "CD_correct": null, "CD_num_HH": "6" }, "geometry": { "type": "Point", "coordinates": [ -9.691087, 5.582035 ] } },
{ "type": "Feature", "properties": { "unique_ID": 162, "town_name": "KARTOON VILLAGE", "HH_count": "4", "adm_distrc": "Fen River", "health_dis": "Timbo West", "remoteness": "remote", "duplicates": 0, "CD_cell": "CC", "ele": 25.013178, "time": "2015\/07\/31", "mappingRnd": 0, "name": "187", ">5km": 0, "numHH": 0, "LMS_2015": 0, "ID": 114, "CD_Name": "CU Kartoon Village", "CD_correct": null, "CD_num_HH": "4" }, "geometry": { "type": "Point", "coordinates": [ -9.683667, 5.572103 ] } },
{ "type": "Feature", "properties": { "unique_ID": 163, "town_name": "SOMWAY VILLAGE", "HH_count": "2", "adm_distrc": "Fen River", "health_dis": "Timbo West", "remoteness": "remote", "duplicates": 0, "CD_cell": "CC", "ele": 28.333296, "time": "2015\/07\/31", "mappingRnd": 0, "name": "190", ">5km": 0, "numHH": 0, "LMS_2015": 0, "ID": 115, "CD_Name": "CU Somway Village", "CD_correct": null, "CD_num_HH": "2" }, "geometry": { "type": "Point", "coordinates": [ -9.68434, 5.575218 ] } },
{ "type": "Feature", "properties": { "unique_ID": 164, "town_name": "TROYAH VILLAGE", "HH_count": "54", "adm_distrc": "Fen River", "health_dis": "Timbo West", "remoteness": "remote", "duplicates": 0, "CD_cell": "CC", "ele": 28.723251, "time": "2015\/07\/31", "mappingRnd": 0, "name": "195", ">5km": 0, "numHH": 0, "LMS_2015": 0, "ID": 116, "CD_Name": "CU Troyah Village", "CD_correct": null, "CD_num_HH": "54" }, "geometry": { "type": "Point", "coordinates": [ -9.686031, 5.581491 ] } },
{ "type": "Feature", "properties": { "unique_ID": 165, "town_name": "BUNWEH TOWN1", "HH_count": "7", "adm_distrc": "Fen River", "health_dis": "Timbo West", "remoteness": "remote", "duplicates": 1, "CD_cell": "CC", "ele": 49.828667, "time": "2015\/07\/23", "mappingRnd": 0, "name": "153", ">5km": 0, "numHH": 0, "LMS_2015": 0, "ID": 120, "CD_Name": "CU Bunweh Town", "CD_correct": null, "CD_num_HH": "7" }, "geometry": { "type": "Point", "coordinates": [ -9.677203, 5.61878 ] } },
{ "type": "Feature", "properties": { "unique_ID": 166, "town_name": "YAH JIM TOWN", "HH_count": "22", "adm_distrc": "Fen River", "health_dis": "Timbo West", "remoteness": "remote", "duplicates": 0, "CD_cell": "___", "ele": 49.760864, "time": "2015\/07\/23", "mappingRnd": 0, "name": "160", ">5km": 0, "numHH": 0, "LMS_2015": 0, "ID": 121, "CD_Name": "CU Yah-Jim", "CD_correct": null, "CD_num_HH": "22" }, "geometry": { "type": "Point", "coordinates": [ -9.690938, 5.619249 ] } },
{ "type": "Feature", "properties": { "unique_ID": 167, "town_name": "TIMBO KRU TOWN", "HH_count": "10", "adm_distrc": "Fen River", "health_dis": "Timbo West", "remoteness": "near-facility", "duplicates": 0, "CD_cell": "LC", "ele": 22.010185, "time": "2015\/08\/01", "mappingRnd": 0, "name": "201", ">5km": 0, "numHH": 0, "LMS_2015": 0, "ID": 127, "CD_Name": "Timbo Kru Town", "CD_correct": null, "CD_num_HH": "10" }, "geometry": { "type": "Point", "coordinates": [ -9.717426, 5.571988 ] } },
{ "type": "Feature", "properties": { "unique_ID": 168, "town_name": "BQEDRUM TOWN", "HH_count": "6", "adm_distrc": "Fen River", "health_dis": "Timbo West", "remoteness": "near-facility", "duplicates": 0, "CD_cell": "___", "ele": 16.500063, "time": "2015\/08\/01", "mappingRnd": 0, "name": "205", ">5km": 0, "numHH": 0, "LMS_2015": 0, "ID": 128, "CD_Name": "CU Boedrum Town", "CD_correct": null, "CD_num_HH": "6" }, "geometry": { "type": "Point", "coordinates": [ -9.716147, 5.56381 ] } },
{ "type": "Feature", "properties": { "unique_ID": 169, "town_name": "KONWAY VILLAGE", "HH_count": "2", "adm_distrc": "Fen River", "health_dis": "Timbo West", "remoteness": "remote", "duplicates": 0, "CD_cell": "CC", "ele": 28.939573, "time": "2015\/08\/01", "mappingRnd": 0, "name": "213", ">5km": 0, "numHH": 0, "LMS_2015": 0, "ID": 129, "CD_Name": "CU Konway Village", "CD_correct": null, "CD_num_HH": "2" }, "geometry": { "type": "Point", "coordinates": [ -9.696757, 5.567529 ] } },
{ "type": "Feature", "properties": { "unique_ID": 170, "town_name": "NEEWLAH VILLAGE", "HH_count": "24", "adm_distrc": "Fen River", "health_dis": "Timbo West", "remoteness": "remote", "duplicates": 0, "CD_cell": "___", "ele": 19.772127, "time": "2015\/08\/01", "mappingRnd": 0, "name": "216", ">5km": 0, "numHH": 0, "LMS_2015": 0, "ID": 130, "CD_Name": "CU Neewah Village", "CD_correct": null, "CD_num_HH": "24" }, "geometry": { "type": "Point", "coordinates": [ -9.69534, 5.563947 ] } },
{ "type": "Feature", "properties": { "unique_ID": 171, "town_name": "DIGGS VILL", "HH_count": "3", "adm_distrc": "Fen River", "health_dis": "Timbo West", "remoteness": "near-facility", "duplicates": 0, "CD_cell": "LC", "ele": 30.286369, "time": "2015\/08\/01", "mappingRnd": 0, "name": "162", ">5km": 0, "numHH": 0, "LMS_2015": 0, "ID": 133, "CD_Name": "CU Diggs Village", "CD_correct": null, "CD_num_HH": "3" }, "geometry": { "type": "Point", "coordinates": [ -9.627928, 5.541578 ] } },
{ "type": "Feature", "properties": { "unique_ID": 172, "town_name": "KPAH TOWN", "HH_count": "12", "adm_distrc": "Fen River", "health_dis": "Timbo West", "remoteness": "remote", "duplicates": 0, "CD_cell": "LC", "ele": 53.421612, "time": "2015\/07\/21", "mappingRnd": 0, "name": "118", ">5km": 0, "numHH": 0, "LMS_2015": 0, "ID": 135, "CD_Name": "CU Kpah Town", "CD_correct": null, "CD_num_HH": "12" }, "geometry": { "type": "Point", "coordinates": [ -9.659252, 5.619313 ] } },
{ "type": "Feature", "properties": { "unique_ID": 173, "town_name": "GOAH TOWN", "HH_count": "5", "adm_distrc": "Fen River", "health_dis": "Timbo West", "remoteness": "remote", "duplicates": 0, "CD_cell": "CC", "ele": 59.753639, "time": "2015\/07\/21", "mappingRnd": 0, "name": "125", ">5km": 0, "numHH": 0, "LMS_2015": 0, "ID": 136, "CD_Name": "CU Goah Town", "CD_correct": null, "CD_num_HH": "5" }, "geometry": { "type": "Point", "coordinates": [ -9.662852, 5.63658 ] } },
{ "type": "Feature", "properties": { "unique_ID": 174, "town_name": "WRUAH TOWN", "HH_count": "5", "adm_distrc": "Fen River", "health_dis": "Timbo West", "remoteness": "near-facility", "duplicates": 0, "CD_cell": "CC", "ele": 36.695221, "time": "2015\/07\/30", "mappingRnd": 0, "name": "167", ">5km": 0, "numHH": 0, "LMS_2015": 0, "ID": 142, "CD_Name": "CU Wruah", "CD_correct": null, "CD_num_HH": "5" }, "geometry": { "type": "Point", "coordinates": [ -9.706945, 5.587633 ] } },
{ "type": "Feature", "properties": { "unique_ID": 175, "town_name": "WAMTOE TOWN", "HH_count": "12", "adm_distrc": "Fen River", "health_dis": "Timbo West", "remoteness": "near-facility", "duplicates": 0, "CD_cell": "CC", "ele": 23.866398, "time": "2015\/07\/30", "mappingRnd": 0, "name": "169", ">5km": 0, "numHH": 0, "LMS_2015": 0, "ID": 143, "CD_Name": "CU Wantoe Village", "CD_correct": null, "CD_num_HH": "12" }, "geometry": { "type": "Point", "coordinates": [ -9.713258, 5.579619 ] } },
{ "type": "Feature", "properties": { "unique_ID": 176, "town_name": "GBARLAH TOWN", "HH_count": "30", "adm_distrc": "Fen River", "health_dis": "Timbo West", "remoteness": "near-facility", "duplicates": 0, "CD_cell": "CC", "ele": 15.071020, "time": "2015\/07\/30", "mappingRnd": 0, "name": "172", ">5km": 0, "numHH": 0, "LMS_2015": 0, "ID": 144, "CD_Name": "Gbarlah Town", "CD_correct": null, "CD_num_HH": "30" }, "geometry": { "type": "Point", "coordinates": [ -9.714856, 5.577409 ] } },
{ "type": "Feature", "properties": { "unique_ID": 177, "town_name": "BUNWEH VILLAGE2", "HH_count": "4", "adm_distrc": "Fen River", "health_dis": "Timbo West", "remoteness": "remote", "duplicates": 1, "CD_cell": "LC", "ele": 49.383335, "time": "2015\/07\/20", "mappingRnd": 0, "name": "109", ">5km": 0, "numHH": 0, "LMS_2015": 0, "ID": 150, "CD_Name": "CU Bunweh Town", "CD_correct": null, "CD_num_HH": "4" }, "geometry": { "type": "Point", "coordinates": [ -9.673946, 5.608176 ] } },
{ "type": "Feature", "properties": { "unique_ID": 178, "town_name": "TOKRAH TOWN", "HH_count": "30", "adm_distrc": "Fen River", "health_dis": "Timbo West", "remoteness": "remote", "duplicates": 0, "CD_cell": "CC", "ele": 47.364754, "time": "2015\/07\/20", "mappingRnd": 0, "name": "113", ">5km": 0, "numHH": 0, "LMS_2015": 0, "ID": 151, "CD_Name": "CU Tokrah Town", "CD_correct": null, "CD_num_HH": "30" }, "geometry": { "type": "Point", "coordinates": [ -9.677539, 5.608353 ] } },
{ "type": "Feature", "properties": { "unique_ID": 179, "town_name": "VOINYEE TOWN", "HH_count": "0", "adm_distrc": "Fen River", "health_dis": "Timbo West", "remoteness": "remote", "duplicates": 0, "CD_cell": null, "ele": 48.764603, "time": "2015\/08\/04", "mappingRnd": 0, "name": "232", ">5km": 0, "numHH": 0, "LMS_2015": 0, "ID": 160, "CD_Name": null, "CD_correct": null, "CD_num_HH": null }, "geometry": { "type": "Point", "coordinates": [ -9.650258, 5.585999 ] } },
{ "type": "Feature", "properties": { "unique_ID": 180, "town_name": "GUEWIEN", "HH_count": "6", "adm_distrc": "Fen River", "health_dis": "Timbo West", "remoteness": "near-facility", "duplicates": 0, "CD_cell": "LC", "ele": 24.643391, "time": "2015\/08\/04", "mappingRnd": 0, "name": "247", ">5km": 0, "numHH": 0, "LMS_2015": 0, "ID": 162, "CD_Name": "CU Guewien", "CD_correct": null, "CD_num_HH": "6" }, "geometry": { "type": "Point", "coordinates": [ -9.624655, 5.515035 ] } },
{ "type": "Feature", "properties": { "unique_ID": 181, "town_name": "GBOAH2", "HH_count": "0", "adm_distrc": "Fen River", "health_dis": "Timbo West", "remoteness": "near-facility", "duplicates": 1, "CD_cell": null, "ele": 20.580053, "time": "2015\/07\/31", "mappingRnd": 0, "name": "132", ">5km": 0, "numHH": 0, "LMS_2015": 0, "ID": 163, "CD_Name": null, "CD_correct": null, "CD_num_HH": null }, "geometry": { "type": "Point", "coordinates": [ -9.595042, 5.53219 ] } },
{ "type": "Feature", "properties": { "unique_ID": 182, "town_name": "YARKAR", "HH_count": "2", "adm_distrc": "Fen River", "health_dis": "Timbo West", "remoteness": "near-facility", "duplicates": 0, "CD_cell": "LC", "ele": 16.771132, "time": "2015\/07\/31", "mappingRnd": 0, "name": "136", ">5km": 0, "numHH": 0, "LMS_2015": 0, "ID": 164, "CD_Name": "CU Yarkar", "CD_correct": null, "CD_num_HH": "2" }, "geometry": { "type": "Point", "coordinates": [ -9.593891, 5.535368 ] } },
{ "type": "Feature", "properties": { "unique_ID": 183, "town_name": "MANDEH1", "HH_count": "65", "adm_distrc": "Fen River", "health_dis": "Timbo West", "remoteness": "remote", "duplicates": 1, "CD_cell": "LC", "ele": 37.662315, "time": "2015\/07\/21", "mappingRnd": 0, "name": "067", ">5km": 0, "numHH": 0, "LMS_2015": 0, "ID": 166, "CD_Name": "CU Mandeh", "CD_correct": null, "CD_num_HH": "65" }, "geometry": { "type": "Point", "coordinates": [ -9.622355, 5.568353 ] } },
{ "type": "Feature", "properties": { "unique_ID": 184, "town_name": "ZOR2", "HH_count": "0", "adm_distrc": "Fen River", "health_dis": "Timbo West", "remoteness": "remote", "duplicates": 1, "CD_cell": null, "ele": 35.180767, "time": "2015\/07\/21", "mappingRnd": 0, "name": "070", ">5km": 0, "numHH": 0, "LMS_2015": 0, "ID": 167, "CD_Name": null, "CD_correct": null, "CD_num_HH": null }, "geometry": { "type": "Point", "coordinates": [ -9.613056, 5.569161 ] } },
{ "type": "Feature", "properties": { "unique_ID": 185, "town_name": "BARYOGAR", "HH_count": "4", "adm_distrc": "Fen River", "health_dis": "Timbo West", "remoteness": "remote", "duplicates": 0, "CD_cell": "CC", "ele": 65.982780, "time": "2015\/07\/23", "mappingRnd": 0, "name": "092", ">5km": 0, "numHH": 0, "LMS_2015": 0, "ID": 169, "CD_Name": "CU Baryogar", "CD_correct": null, "CD_num_HH": "4" }, "geometry": { "type": "Point", "coordinates": [ -9.616448, 5.612045 ] } },
{ "type": "Feature", "properties": { "unique_ID": 186, "town_name": "GBEGBEH", "HH_count": "12", "adm_distrc": "Fen River", "health_dis": "Timbo West", "remoteness": "remote", "duplicates": 0, "CD_cell": "CC", "ele": 50.108509, "time": "2015\/07\/23", "mappingRnd": 0, "name": "094", ">5km": 0, "numHH": 0, "LMS_2015": 0, "ID": 170, "CD_Name": "CU Gbeben", "CD_correct": null, "CD_num_HH": "12" }, "geometry": { "type": "Point", "coordinates": [ -9.614874, 5.611905 ] } },
{ "type": "Feature", "properties": { "unique_ID": 187, "town_name": "GOVAHN", "HH_count": "15", "adm_distrc": "Fen River", "health_dis": "Timbo West", "remoteness": "remote", "duplicates": 0, "CD_cell": "___", "ele": 47.321293, "time": "2015\/07\/23", "mappingRnd": 0, "name": "096", ">5km": 0, "numHH": 0, "LMS_2015": 0, "ID": 171, "CD_Name": "CU Goyahn", "CD_correct": null, "CD_num_HH": "15" }, "geometry": { "type": "Point", "coordinates": [ -9.612287, 5.612563 ] } },
{ "type": "Feature", "properties": { "unique_ID": 188, "town_name": "KAKA PETER", "HH_count": "8", "adm_distrc": "Fen River", "health_dis": "Timbo West", "remoteness": "remote", "duplicates": 0, "CD_cell": "___", "ele": 70.069626, "time": "2015\/07\/23", "mappingRnd": 0, "name": "098", ">5km": 0, "numHH": 0, "LMS_2015": 0, "ID": 172, "CD_Name": "CU Kaka Peter", "CD_correct": null, "CD_num_HH": "8" }, "geometry": { "type": "Point", "coordinates": [ -9.609969, 5.612983 ] } },
{ "type": "Feature", "properties": { "unique_ID": 189, "town_name": "KEBEH", "HH_count": "7", "adm_distrc": "Fen River", "health_dis": "Timbo West", "remoteness": "remote", "duplicates": 0, "CD_cell": "___", "ele": 54.551582, "time": "2015\/07\/23", "mappingRnd": 0, "name": "100", ">5km": 0, "numHH": 0, "LMS_2015": 0, "ID": 173, "CD_Name": "CU Kebeh", "CD_correct": null, "CD_num_HH": "7" }, "geometry": { "type": "Point", "coordinates": [ -9.604975, 5.614014 ] } },
{ "type": "Feature", "properties": { "unique_ID": 190, "town_name": "BOEDOER", "HH_count": "11", "adm_distrc": "Fen River", "health_dis": "Timbo West", "remoteness": "remote", "duplicates": 0, "CD_cell": "LC", "ele": 62.203190, "time": "2015\/07\/23", "mappingRnd": 0, "name": "104", ">5km": 0, "numHH": 0, "LMS_2015": 0, "ID": 174, "CD_Name": "CU Boedoes", "CD_correct": null, "CD_num_HH": "11" }, "geometry": { "type": "Point", "coordinates": [ -9.604279, 5.61373 ] } },
{ "type": "Feature", "properties": { "unique_ID": 191, "town_name": "WEHZOHN1", "HH_count": "12", "adm_distrc": "Fen River", "health_dis": "Timbo West", "remoteness": "remote", "duplicates": 1, "CD_cell": "CC", "ele": 44.980705, "time": "2015\/07\/22", "mappingRnd": 0, "name": "083", ">5km": 0, "numHH": 0, "LMS_2015": 0, "ID": 177, "CD_Name": "CU Wezohn", "CD_correct": null, "CD_num_HH": "12" }, "geometry": { "type": "Point", "coordinates": [ -9.618601, 5.55644 ] } },
{ "type": "Feature", "properties": { "unique_ID": 192, "town_name": "ZEAN TOWN", "HH_count": "0", "adm_distrc": "Gboe-Ploe", "health_dis": "Gbao", "remoteness": "remote", "duplicates": 0, "CD_cell": null, "ele": 129.603912, "time": "2015\/02\/25", "mappingRnd": 0, "name": null, ">5km": 0, "numHH": 0, "LMS_2015": 0, "ID": 0, "CD_Name": null, "CD_correct": null, "CD_num_HH": null }, "geometry": { "type": "Point", "coordinates": [ -8.82189, 5.865667 ] } },
{ "type": "Feature", "properties": { "unique_ID": 193, "town_name": "PANNIWEN", "HH_count": "0", "adm_distrc": "Gboe-Ploe", "health_dis": "Gbao", "remoteness": "remote", "duplicates": 0, "CD_cell": null, "ele": 117.540482, "time": "2015\/02\/27", "mappingRnd": 0, "name": null, ">5km": 0, "numHH": 0, "LMS_2015": 0, "ID": 0, "CD_Name": null, "CD_correct": null, "CD_num_HH": null }, "geometry": { "type": "Point", "coordinates": [ -8.850798, 5.891796 ] } },
{ "type": "Feature", "properties": { "unique_ID": 194, "town_name": "UNKNOWN COMMUNITY", "HH_count": "0", "adm_distrc": "Gboe-Ploe", "health_dis": "Gbao", "remoteness": "remote", "duplicates": 0, "CD_cell": null, "ele": null, "time": "2015\/03\/05", "mappingRnd": 0, "name": null, ">5km": 0, "numHH": 0, "LMS_2015": 0, "ID": 0, "CD_Name": null, "CD_correct": null, "CD_num_HH": null }, "geometry": { "type": "Point", "coordinates": [ -8.838057, 5.835076 ] } },
{ "type": "Feature", "properties": { "unique_ID": 195, "town_name": "ZARZAR TOWN", "HH_count": "0", "adm_distrc": "Gboe-Ploe", "health_dis": "Gbao", "remoteness": "remote", "duplicates": 0, "CD_cell": null, "ele": 249.035797, "time": "2015\/02\/24", "mappingRnd": 0, "name": null, ">5km": 0, "numHH": 0, "LMS_2015": 0, "ID": 0, "CD_Name": null, "CD_correct": null, "CD_num_HH": null }, "geometry": { "type": "Point", "coordinates": [ -8.689004, 6.021123 ] } },
{ "type": "Feature", "properties": { "unique_ID": 196, "town_name": "UNKNOWN COMMUNITY", "HH_count": "0", "adm_distrc": "Gboe-Ploe", "health_dis": "Gbao", "remoteness": "remote", "duplicates": 0, "CD_cell": null, "ele": 199.146271, "time": "2015\/02\/24", "mappingRnd": 0, "name": null, ">5km": 0, "numHH": 0, "LMS_2015": 0, "ID": 0, "CD_Name": null, "CD_correct": null, "CD_num_HH": null }, "geometry": { "type": "Point", "coordinates": [ -8.725816, 5.975559 ] } },
{ "type": "Feature", "properties": { "unique_ID": 197, "town_name": "UNKNOWN COMMUNITY", "HH_count": "0", "adm_distrc": "Gboe-Ploe", "health_dis": "Gbao", "remoteness": "remote", "duplicates": 0, "CD_cell": null, "ele": 121.795387, "time": "2015\/02\/24", "mappingRnd": 0, "name": null, ">5km": 0, "numHH": 0, "LMS_2015": 0, "ID": 0, "CD_Name": null, "CD_correct": null, "CD_num_HH": null }, "geometry": { "type": "Point", "coordinates": [ -8.907572253378563, 5.850708822794911 ] } },
{ "type": "Feature", "properties": { "unique_ID": 198, "town_name": "ZIMMIE TOWN", "HH_count": "0", "adm_distrc": "Gboe-Ploe", "health_dis": "Gbao", "remoteness": "remote", "duplicates": 0, "CD_cell": null, "ele": 205.953400, "time": "2015\/02\/25", "mappingRnd": 0, "name": null, ">5km": 0, "numHH": 0, "LMS_2015": 0, "ID": 0, "CD_Name": null, "CD_correct": null, "CD_num_HH": null }, "geometry": { "type": "Point", "coordinates": [ -8.802995, 5.950999 ] } },
{ "type": "Feature", "properties": { "unique_ID": 199, "town_name": "CHAYEE TOWN", "HH_count": "0", "adm_distrc": "Gboe-Ploe", "health_dis": "Gbao", "remoteness": "remote", "duplicates": 0, "CD_cell": null, "ele": 148.810379, "time": "2015\/02\/25", "mappingRnd": 0, "name": null, ">5km": 0, "numHH": 0, "LMS_2015": 0, "ID": 0, "CD_Name": null, "CD_correct": null, "CD_num_HH": null }, "geometry": { "type": "Point", "coordinates": [ -8.863603, 5.959802 ] } },
{ "type": "Feature", "properties": { "unique_ID": 200, "town_name": "WHYEE\/BODEE\/PLOE", "HH_count": "0", "adm_distrc": "Gboe-Ploe", "health_dis": "Gbao", "remoteness": "remote", "duplicates": 0, "CD_cell": null, "ele": 163.620636, "time": "2015\/03\/23", "mappingRnd": 0, "name": null, ">5km": 0, "numHH": 0, "LMS_2015": 0, "ID": 0, "CD_Name": null, "CD_correct": null, "CD_num_HH": null }, "geometry": { "type": "Point", "coordinates": [ -8.724767, 6.226717 ] } },
{ "type": "Feature", "properties": { "unique_ID": 201, "town_name": "UNKNOWN COMMUNITY", "HH_count": "0", "adm_distrc": "Gboe-Ploe", "health_dis": "Gbao", "remoteness": "remote", "duplicates": 0, "CD_cell": null, "ele": 160.115875, "time": "2015\/03\/24", "mappingRnd": 0, "name": null, ">5km": 0, "numHH": 0, "LMS_2015": 0, "ID": 0, "CD_Name": null, "CD_correct": null, "CD_num_HH": null }, "geometry": { "type": "Point", "coordinates": [ -8.716411, 6.245679 ] } },
{ "type": "Feature", "properties": { "unique_ID": 202, "town_name": "UNKNOWN COMMUNITY", "HH_count": "0", "adm_distrc": "Gboe-Ploe", "health_dis": "Gbao", "remoteness": "remote", "duplicates": 0, "CD_cell": null, "ele": 194.249573, "time": "2015\/03\/24", "mappingRnd": 0, "name": null, ">5km": 0, "numHH": 0, "LMS_2015": 0, "ID": 0, "CD_Name": null, "CD_correct": null, "CD_num_HH": null }, "geometry": { "type": "Point", "coordinates": [ -8.701057, 6.260701 ] } },
{ "type": "Feature", "properties": { "unique_ID": 203, "town_name": "ZIAH TOWN", "HH_count": "0", "adm_distrc": "Konobo", "health_dis": "Konobo", "remoteness": "near-facility", "duplicates": 0, "CD_cell": null, "ele": 184.108276, "time": "2012\/08\/20", "mappingRnd": 0, "name": null, ">5km": 0, "numHH": 0, "LMS_2015": 0, "ID": 1, "CD_Name": null, "CD_correct": null, "CD_num_HH": null }, "geometry": { "type": "Point", "coordinates": [ -7.857652000000634, 5.766399 ] } },
{ "type": "Feature", "properties": { "unique_ID": 204, "town_name": "NYENOW", "HH_count": "0", "adm_distrc": "Konobo", "health_dis": "Konobo", "remoteness": "remote", "duplicates": 0, "CD_cell": null, "ele": 225.531067, "time": "2012\/08\/28", "mappingRnd": 0, "name": null, ">5km": 0, "numHH": 0, "LMS_2015": 0, "ID": 2, "CD_Name": null, "CD_correct": null, "CD_num_HH": null }, "geometry": { "type": "Point", "coordinates": [ -7.811271000000776, 5.754344 ] } },
{ "type": "Feature", "properties": { "unique_ID": 205, "town_name": "VILLAGE", "HH_count": "0", "adm_distrc": "Konobo", "health_dis": "Konobo", "remoteness": "remote", "duplicates": 0, "CD_cell": null, "ele": 191.619980, "time": "2012\/08\/28", "mappingRnd": 0, "name": null, ">5km": 0, "numHH": 0, "LMS_2015": 0, "ID": 3, "CD_Name": null, "CD_correct": null, "CD_num_HH": null }, "geometry": { "type": "Point", "coordinates": [ -7.799775000000815, 5.75756 ] } },
{ "type": "Feature", "properties": { "unique_ID": 206, "town_name": "GLAYGEE", "HH_count": "0", "adm_distrc": "Konobo", "health_dis": "Konobo", "remoteness": "remote", "duplicates": 0, "CD_cell": null, "ele": 204.938919, "time": "2012\/08\/28", "mappingRnd": 0, "name": null, ">5km": 0, "numHH": 0, "LMS_2015": 0, "ID": 4, "CD_Name": null, "CD_correct": null, "CD_num_HH": null }, "geometry": { "type": "Point", "coordinates": [ -7.78961400000085, 5.754321 ] } },
{ "type": "Feature", "properties": { "unique_ID": 207, "town_name": "JEWAY", "HH_count": "0", "adm_distrc": "Glio-Twarbo", "health_dis": "Konobo", "remoteness": "remote", "duplicates": 0, "CD_cell": null, "ele": 202.368286, "time": "2012\/08\/28", "mappingRnd": 0, "name": null, ">5km": 0, "numHH": 0, "LMS_2015": 0, "ID": 5, "CD_Name": null, "CD_correct": null, "CD_num_HH": null }, "geometry": { "type": "Point", "coordinates": [ -7.781176000000881, 5.752315 ] } },
{ "type": "Feature", "properties": { "unique_ID": 208, "town_name": "WHYBO", "HH_count": "0", "adm_distrc": "Glio-Twarbo", "health_dis": "Konobo", "remoteness": "remote", "duplicates": 0, "CD_cell": null, "ele": 194.410080, "time": "2012\/08\/28", "mappingRnd": 0, "name": null, ">5km": 0, "numHH": 0, "LMS_2015": 0, "ID": 6, "CD_Name": null, "CD_correct": null, "CD_num_HH": null }, "geometry": { "type": "Point", "coordinates": [ -7.776044000000898, 5.748085 ] } },